"시설번호",시설유형코드,시도명,시군구명,시군구코드,소재지도로명주소,소재지지번주소,위도,경도,상세위치,안전센터명,보호틀유무,사용가능여부,설치년도,배관깊이,출수압력,배관지름,관할소방서명,관할소방서전화번호,데이터기준일자
"문산혁신2호",01,경상남도,진주시,48170,경상남도 진주시 에나로 228번길 10,,35.17020379,128.1426553,LH 10단지 저류지 옆,문산안전센터,N,Y,2016,1,3,100,진주소방서,055-760-9296,2019-04-30
"문산혁신89호",01,경상남도,진주시,48170,경상남도 진주시 소호로 39,,35.17041623,128.1323185,한림풀에버 후문,문산안전센터,N,Y,2016,1,3,100,진주소방서,055-760-9296,2019-04-30
"미천3호",01,경상남도,진주시,48170,경상남도 진주시 미천면 상미로 469,,35.34080545,128.1427382,대곡마을 회관 앞 도로상,상대안전센터,Y,Y,2015,1,3,100,진주소방서,055-760-9296,2019-04-30
"미천1호",01,경상남도,진주시,48170,경상남도 진주시 진산로 1834,,35.31906139,128.0906211,중부농협 안간지소 앞,상대안전센터,N,Y,2009,1,3,100,진주소방서,055-760-9296,2019-04-30
"대곡2호",01,경상남도,진주시,48170,경상남도 진주시 월암로 457,,35.3171802,128.1608287,덕촌마을 마을회관 인근,상대안전센터,N,Y,1989,1,3,100,진주소방서,055-760-9296,2019-04-30
"미천2호",01,경상남도,진주시,48170,경상남도 진주시 오방로 731,,35.29921283,128.115381,마을회관 앞,상대안전센터,N,Y,2011,1,3,100,진주소방서,055-760-9296,2019-04-30
2-177,01,경상남도,진주시,48170,경상남도 진주시 남성로 689번길,,35.289216,128.056141,장흥마을회관 앞,평거안전센터,N,Y,2017,1,3,100,진주소방서,055-760-9296,2019-04-30
2-154,01,경상남도,진주시,48170,경상남도 진주시 외율길 37,,35.280939,127.9950915,외율마을회관 앞,평거안전센터,Y,Y,2016,1,3,100,진주소방서,055-760-9296,2019-04-30
2-153,01,경상남도,진주시,48170,경상남도 진주시 광제산로 685번길 116,,35.27540966,128.0310949,광제서원 앞,평거안전센터,Y,Y,2014,1,3,100,진주소방서,055-760-9296,2019-04-30
"대곡1호",01,경상남도,진주시,48170,경상남도 진주시 진의로 1093,,35.26433622,128.1688986,대곡면 사무소 건너 (대곡미용실 앞),상대안전센터,N,Y,1989,1,3,100,진주소방서,055-760-9296,2019-04-30
"대곡3호",01,경상남도,진주시,48170,경상남도 진주시 남강로 2438번길 54,,35.26171673,128.168358,대곡주유소 앞,상대안전센터,N,Y,1989,1,3,100,진주소방서,055-760-9296,2019-04-30
"대곡4호",01,경상남도,진주시,48170,경상남도 진주시 남강로 2438번길 19,,35.26095354,128.164861,근대화슈퍼 건너편 도로옆,상대안전센터,N,Y,1990,1,3,100,진주소방서,055-760-9296,2019-04-30
"대곡6호",01,경상남도,진주시,48170,경상남도 진주시 대화로 68번지,,35.259506,128.184302,농공단지내 한일식품 정문 앞,상대안전센터,N,Y,1998,1,3,100,진주소방서,055-760-9296,2019-04-30
"대곡5호",01,경상남도,진주시,48170,경상남도 진주시 대화로 47,,35.2582067,128.183024,농공단지내 와룡정 식당(구.대곡농공식당) 앞,상대안전센터,N,Y,1998,1,3,100,진주소방서,055-760-9296,2019-04-30
"대곡7호",01,경상남도,진주시,48170,경상남도 진주시 대화로 32번지,,35.256586,128.183428,농공단지내 일광금속 앞,상대안전센터,Y,Y,1999,1,3,100,진주소방서,055-760-9296,2019-04-30
"대곡9호",01,경상남도,진주시,48170,경상남도 진주시 대곡면 오방로 6,,35.2550609,128.149462,단목삼거리 주변,상대안전센터,Y,Y,2016,1,3,100,진주소방서,055-760-9296,2019-04-30
"반성32호",01,경상남도,진주시,48170,경상남도 진주시 지수면 용봉로 292번길 97,,35.2479668,128.244655,용봉마을 회관 맞은편,문산안전센터,N,Y,2012,1,3,100,진주소방서,055-760-9296,2019-04-30
"반성31호",01,경상남도,진주시,48170,경상남도 진주시 지수면 용봉로 292번길 20,,35.2423799,128.248572,압현마을 앞,문산안전센터,N,Y,2012,1,3,100,진주소방서,055-760-9296,2019-04-30
"반성33호",01,경상남도,진주시,48170,경상남도 진주시 지수면 용봉로 328,,35.2416732,128.2432397,옷점이마을,문산안전센터,N,Y,2012,1,3,100,진주소방서,055-760-9296,2019-04-30
"집현2호",01,경상남도,진주시,48170,경상남도 진주시 진산로 697,,35.23930051,128.086611,집현면사무소 입구 게시판 옆,상대안전센터,N,Y,2008,1,3,100,진주소방서,055-760-9296,2019-04-30
"집현1호",01,경상남도,진주시,48170,경상남도 진주시 진산로,,35.238861,128.090361,금빛현대아파트 입구,상대안전센터,N,Y,2007,1,3,100,진주소방서,055-760-9296,2019-04-30
"반성20호",01,경상남도,진주시,48170,경상남도 진주시 지수면 지수로 483,,35.2351393,128.269339,지수면사무소,문산안전센터,N,Y,2009,1,3,100,진주소방서,055-760-9296,2019-04-30
2-115,01,경상남도,진주시,48170,경상남도 진주시 한들길 48,,35.233021,127.9605706,대평농협 앞,평거안전센터,N,Y,2007,1,3,100,진주소방서,055-760-9296,2019-04-30
2-116,01,경상남도,진주시,48170,경상남도 진주시 한들길 32,,35.23162445,127.9610287,대평길림성 앞,평거안전센터,N,Y,2007,1,3,100,진주소방서,055-760-9296,2019-04-30
"대곡8호",01,경상남도,진주시,48170,경상남도 진주시 마진한실로597,,35.23735389,128.2241147,한실마을 마을회관 앞,상대안전센터,N,Y,2014,1,3,100,진주소방서,055-760-9296,2019-04-30
2-120,01,경상남도,진주시,48170,경상남도 진주시 광제산로 37,,35.21976489,128.0402096,명석면사무소 앞,평거안전센터,N,Y,2009,1,3,100,진주소방서,055-760-9296,2019-04-30
"금산5호",01,경상남도,진주시,48170,경상남도 진주시 금산면 중천로 67번길 5,,35.2188788,128.144424,화광비발디아파트,문산안전센터,N,Y,2003,1,3,100,진주소방서,055-760-9296,2019-04-30
"금산6호",01,경상남도,진주시,48170,경상남도 진주시 금산면 중천로 79,,35.2179255,128.146081,금산빌딩,문산안전센터,N,Y,2003,1,3,100,진주소방서,055-760-9296,2019-04-30
5-059,02,경상남도,진주시,48170,경상남도 진주시 진산로 361,,35.2177183,128.100694,경남예술고 앞 삼거리(장재건강원 옆),상대안전센터,N,Y,1992,1,3,100,진주소방서,055-760-9296,2019-04-30
"금산4호",01,경상남도,진주시,48170,경상남도 진주시 금산면 중천로 39,,35.21745092,128.142156,해오름동물병원 앞,문산안전센터,N,Y,2003,1,3,100,진주소방서,055-760-9296,2019-04-30
"금산3호",01,경상남도,진주시,48170,경상남도 진주시 금산면 중천로 25,,35.21684727,128.1411561,진주우편집중국,문산안전센터,N,Y,2003,1,3,100,진주소방서,055-760-9296,2019-04-30
"금산7호",01,경상남도,진주시,48170,경상남도 진주시 금산면 금산순환로 26,,35.21657933,128.147371,금산농협주유소 맞은편,문산안전센터,N,Y,2003,1,3,100,진주소방서,055-760-9296,2019-04-30
"금산8호",01,경상남도,진주시,48170,경상남도 진주시 금산면 금산순환로 11번길 31,,35.216592,128.143891,강남학원 옆,문산안전센터,Y,Y,2006,1,3,100,진주소방서,055-760-9296,2019-04-30
"초전16",01,경상남도,진주시,48170,경상남도 진주시 진산로 322번길 66,,35.2153872,128.1100721,초원유치원 앞,상대안전센터,N,Y,2016,1,3,100,진주소방서,055-760-9296,2019-04-30
2-098,01,경상남도,진주시,48170,경상남도 진주시 나불로 277,,35.21572463,128.041331,명석삼거리 앞,평거안전센터,N,Y,1998,1,3,100,진주소방서,055-760-9296,2019-04-30
5-081,01,경상남도,진주시,48170,경상남도 진주시 초장로 14번길 29,,35.20783249,128.1119116,푸르지오 2단지 북편 초원유치원 가는 시멘트도로입구,상대안전센터,Y,Y,2009,1,3,100,진주소방서,055-760-9296,2019-04-30
"금산2호",01,경상남도,진주시,48170,경상남도 진주시 금산면 중천로 9,,35.21503586,128.140977,달그락진주금산점,문산안전센터,Y,Y,2003,1,3,100,진주소방서,055-760-9296,2019-04-30
"금산9호",01,경상남도,진주시,48170,경상남도 진주시 금산면 금산순환로 5,,35.21503041,128.1457213,금산농협 옆,문산안전센터,N,Y,2006,1,3,100,진주소방서,055-760-9296,2019-04-30
5-076,01,경상남도,진주시,48170,경상남도 진주시 월아산로 2026,,35.2146996,128.122917,진주의료원 앞,상대안전센터,N,Y,2007,1,3,100,진주소방서,055-760-9296,2019-04-30
"초전8",01,경상남도,진주시,48170,경상남도 진주시 초북로 55,,35.2103252,128.1116008,해모로 206동 남편,상대안전센터,N,Y,2016,1,3,100,진주소방서,055-760-9296,2019-04-30
"초전7",01,경상남도,진주시,48170,경상남도 진주시 초북로 55,,35.2103252,128.1116008,해모로 208동 앞,상대안전센터,N,Y,2016,1,3,100,진주소방서,055-760-9296,2019-04-30
"초전17",01,경상남도,진주시,48170,경상남도 진주시 대신로 614,,35.2154531,128.1147745,명신고 건너,상대안전센터,N,Y,2016,1,3,100,진주소방서,055-760-9296,2019-04-30
"초전9",01,경상남도,진주시,48170,경상남도 진주시 초북로 77,,35.2131719,128.1084502,엠코 306동 건너 장재초등학교 주차장 입구,상대안전센터,N,Y,2016,1,3,100,진주소방서,055-760-9296,2019-04-30
"금산1호",01,경상남도,진주시,48170,경상남도 진주시 금산면 금산로 48,,35.21388207,128.141756,금산교회,문산안전센터,Y,Y,2003,1,3,100,진주소방서,055-760-9296,2019-04-30
"초전6",01,경상남도,진주시,48170,경상남도 진주시 초북로 77,,35.2131719,128.1084502,엠코 정문 건너,상대안전센터,N,Y,2016,1,3,100,진주소방서,055-760-9296,2019-04-30
"초전10",01,경상남도,진주시,48170,경상남도 진주시 초북로 46,,35.21257382,128.1114622,MG새마을금고 앞,상대안전센터,N,Y,2016,1,3,100,진주소방서,055-760-9296,2019-04-30
"초전5",01,경상남도,진주시,48170,경상남도 진주시 초북로 77,,35.2131719,128.1084502,엠코 1단지 남쪽 횡단보도 앞,상대안전센터,N,Y,2016,1,3,100,진주소방서,055-760-9296,2019-04-30
"초전13",01,경상남도,진주시,48170,경상남도 진주시 초북로 77,,35.2131719,128.1084502,엠코 303동 남쪽,상대안전센터,N,Y,2016,1,3,100,진주소방서,055-760-9296,2019-04-30
"반성34호",01,경상남도,진주시,48170,경상남도 진주시 사봉면 용봉로 329,,35.212343,128.310039,화광마을 입구,문산안전센터,Y,Y,2013,1,3,100,진주소방서,055-760-9296,2019-04-30
"초전1",01,경상남도,진주시,48170,경상남도 진주시 초북로 20번길 6,,35.21219972,128.1133329,놀부돼지부대찌개 앞 인도,상대안전센터,N,Y,2016,1,3,100,진주소방서,055-760-9296,2019-04-30
"초전4",01,경상남도,진주시,48170,경상남도 진주시 초북로 77,,35.2131719,128.1084502,엠코타운 301동 앞,상대안전센터,N,Y,2016,1,3,100,진주소방서,055-760-9296,2019-04-30
"초전3",01,경상남도,진주시,48170,경상남도 진주시 초북로 55,,35.2103252,128.1116008,해모로 408동 앞,상대안전센터,N,Y,2016,1,3,100,진주소방서,055-760-9296,2019-04-30
"초전18",01,경상남도,진주시,48170,경상남도 진주시 초북로,,35.212115,128.111299,삼성교통 건너,상대안전센터,Y,Y,2016,1,3,100,진주소방서,055-760-9296,2019-04-30
"초전14",01,경상남도,진주시,48170,경상남도 진주시 초북로 55,,35.2103252,128.1116008,해모로 406동 앞,상대안전센터,N,Y,2015,1,3,100,진주소방서,055-760-9296,2019-04-30
5-034,01,경상남도,진주시,48170,경상남도 진주시 대신로 570,,35.2109138,128.1173185,제일교회 입구,상대안전센터,N,Y,1993,1,3,100,진주소방서,055-760-9296,2019-04-30
"초전11",01,경상남도,진주시,48170,경상남도 진주시 초장로120,,35.210194,128.111935,이지더원 남동쪽,상대안전센터,N,Y,2015,1,3,100,진주소방서,055-760-9296,2019-04-30
"초전19",01,경상남도,진주시,48170,경상남도 진주시 초전북로 61번길 18,,35.209868,128.110725,이지더원505동 앞,상대안전센터,Y,Y,2015,1,3,100,진주소방서,055-760-9296,2019-04-30
"초전12",01,경상남도,진주시,48170,경상남도 진주시 초장로120,,35.209641,128.109618,이지더원 남쪽,상대안전센터,N,Y,2015,1,3,100,진주소방서,055-760-9296,2019-04-30
4-084,01,경상남도,진주시,48170,경상남도 진주시 초전북로 151,,35.2093041,128.1234394,김창현 카 서비스 앞,상대안전센터,Y,Y,1984,1,3,100,진주소방서,055-760-9296,2019-04-30
5-033,01,경상남도,진주시,48170,경상남도 진주시 대신로 570,,35.2109138,128.1173185,삼성교통 입구,상대안전센터,N,Y,1993,1,3,100,진주소방서,055-760-9296,2019-04-30
"초전21",01,경상남도,진주시,48170,경상남도 진주시 초전북로 61번길 34-17,,35.2119364,128.1149151,농업기술원삼거리,상대안전센터,N,Y,2015,1,3,100,진주소방서,055-760-9296,2019-04-30
5-082,01,경상남도,진주시,48170,경상남도 진주시 초전북로 88,,35.2083635,128.116573,일동아파트 진입로 (심천24시사우나 앞),상대안전센터,N,Y,2009,1,3,100,진주소방서,055-760-9296,2019-04-30
"초전15",01,경상남도,진주시,48170,경상남도 진주시 초전북로39번길 5-18,,35.20870758,128.1100522,초전교회  앞,상대안전센터,N,Y,2015,1,3,100,진주소방서,055-760-9296,2019-04-30
5-035,01,경상남도,진주시,48170,경상남도 진주시 초전북로 114,,35.208334,128.119089,농업기술원 정문 앞 남쪽 사거리 신호대 옆,상대안전센터,Y,Y,1993,1,3,100,진주소방서,055-760-9296,2019-04-30
5-080,01,경상남도,진주시,48170,경상남도 진주시 초장로 14번길 29,,35.20783249,128.1119116,푸르지오 2단지 북문 정문 도로 건너편,상대안전센터,N,Y,2009,1,3,100,진주소방서,055-760-9296,2019-04-30
"초전2",01,경상남도,진주시,48170,경상남도 진주시 초전북로 51번길 30,,35.21109469,128.1119648,돈순이솥뚜껑삽겹살앞,상대안전센터,N,Y,2015,1,3,100,진주소방서,055-760-9296,2019-04-30
"초전20",01,경상남도,진주시,48170,경상남도 진주시 초전북로 20-20,,35.208031,128.109348,초전일동아파트앞,상대안전센터,N,Y,2015,1,3,100,진주소방서,055-760-9296,2019-04-30
5-039,01,경상남도,진주시,48170,경상남도 진주시 초전북로 20,,35.20764797,128.1096249,일동아파트 입구,상대안전센터,Y,Y,1993,1,3,100,진주소방서,055-760-9296,2019-04-30
5-087,01,경상남도,진주시,48170,경상남도 진주시 초전북로 52,,35.207412,128.113991,초전초교 후문입구 인도,상대안전센터,Y,Y,2009,1,3,100,진주소방서,055-760-9296,2019-04-30
5-084,01,경상남도,진주시,48170,경상남도 진주시 초전북로 52,,35.207361,128.112671,"푸르지오 2단지 204동 동편 (2,3동앞)",상대안전센터,N,Y,2009,1,3,100,진주소방서,055-760-9296,2019-04-30
5-083,01,경상남도,진주시,48170,경상남도 진주시 초전북로52번길 19-8,,35.2071917,128.113641,초장초등학교 신축부지 뒷길 부근(잉글리시 아이 앞),상대안전센터,N,Y,2009,1,3,100,진주소방서,055-760-9296,2019-04-30
"반성30호",01,경상남도,진주시,48170,경상남도 진주시 지수로 98번길 12-1,,35.205905,128.2840441,거곡마을 경로당,문산안전센터,N,Y,2012,1,3,100,진주소방서,055-760-9296,2019-04-30
5-085,01,경상남도,진주시,48170,경상남도 진주시 초장로 14번길 27,,35.20376771,128.1136702,푸르지오 1단지 103동 동편 신호대,상대안전센터,N,Y,2009,1,3,100,진주소방서,055-760-9296,2019-04-30
5-079,01,경상남도,진주시,48170,경상남도 진주시 초장로 14번길 27,,35.20376771,128.1136702,푸르지오1단지 북문 104동 앞 인도상(1초소 정문),상대안전센터,N,Y,2009,1,3,100,진주소방서,055-760-9296,2019-04-30
1-028,01,경상남도,진주시,48170,경상남도 진주시 진주성로 169,,35.2050653,128.0739974,봉원중학교 정문 건너편 버스정류장 인도,중앙안전센터,Y,Y,2008,1,3,150,진주소방서,055-760-9296,2019-04-30
5-086,01,경상남도,진주시,48170,경상남도 진주시 초장로14번길 14,,35.20458106,128.114611,초장우체국뒤 인도,상대안전센터,Y,Y,2009,1,3,100,진주소방서,055-760-9296,2019-04-30
5-078,01,경상남도,진주시,48170,경상남도 진주시 초장로14번길 27,,35.20376771,128.1136702,푸르지오 1단지 106동 앞 인도상,상대안전센터,N,Y,2009,1,3,100,진주소방서,055-760-9296,2019-04-30
5-088,01,경상남도,진주시,48170,경상남도 진주시 초장로 14번길4-18,,35.2035616,128.115566,초장동 주민센터입구 할리스커피 뒤 화단,상대안전센터,N,Y,2009,1,3,100,진주소방서,055-760-9296,2019-04-30
"문산혁신66호",01,경상남도,진주시,48170,경상남도 진주시 동진로 420,,35.180239,128.1369726,국방기술품질원,문산안전센터,N,Y,2016,1,3,100,진주소방서,055-760-9296,2019-04-30
1-114,01,경상남도,진주시,48170,경상남도 진주시 진주성로 147번길 10,,35.203162,128.073613,주공2차아파트 202동 앞 시내버스정류소 옆,중앙안전센터,N,Y,2013,1,3,150,진주소방서,055-760-9296,2019-04-30
5-073,01,경상남도,진주시,48170,경상남도 진주시 대신로 475번길 16-1,,35.2024702,128.1144169,청구아파트옆 푸른약국 앞 전봇대옆,상대안전센터,N,Y,2003,1,3,100,진주소방서,055-760-9296,2019-04-30
1-123,01,경상남도,진주시,48170,경상남도 진주시 의곡길 47,,35.20133065,128.0818546,대영슈퍼 맞은편(의곡사 입구),중앙안전센터,N,Y,2017,1,3,150,진주소방서,055-760-9296,2019-04-30
4-080,01,경상남도,진주시,48170,경상남도 진주시 대신로 457번길 12-2,,35.2015184,128.115169,호도원 호두과자 앞,상대안전센터,Y,Y,2016,1,3,100,진주소방서,055-760-9296,2019-04-30
1-032,02,경상남도,진주시,48170,경상남도 진주시 상봉대룡길 19,,35.2014992,128.067849,화진그린맨션 서북편 도로,중앙안전센터,N,Y,1997,1,3,150,진주소방서,055-760-9296,2019-04-30
2-089,01,경상남도,진주시,48170,경상남도 진주시 창렬로187번길 11-33,,35.20160299,128.0763767,봉황사 앞 인도상,중앙안전센터,N,Y,1995,1,3,150,진주소방서,055-760-9296,2019-04-30
2-092,01,경상남도,진주시,48170,경상남도 진주시 의병로 116번길 1-5,,35.201044,128.072686,어울림채 앞(봉원탕 뒤쪽),중앙안전센터,N,Y,2012,1,3,150,진주소방서,055-760-9296,2019-04-30
1-125,01,경상남도,진주시,48170,경상남도 진주시 의곡길 42,,35.2006862,128.082285,빌라 좌측 옆(의곡사 입구 정자나무 맞은편),중앙안전센터,N,Y,2002,1,3,150,진주소방서,055-760-9296,2019-04-30
"문산혁신61호",01,경상남도,진주시,48170,경상남도 진주시 대밭골로37번길 7-7,,35.200647,128.153052,위너스크린골프,문산안전센터,Y,Y,2016,1,3,100,진주소방서,055-760-9296,2019-04-30
1-027,01,경상남도,진주시,48170,경상남도 진주시 창렬로169번길 11-2,,35.200451,128.075141,금호카센터 앞(거성할인마트 옆),중앙안전센터,N,Y,1997,1,3,150,진주소방서,055-760-9296,2019-04-30
2-091,01,경상남도,진주시,48170,경상남도 진주시 창렬로149번길 6-24,,35.200237,128.073759,주택 앞(거성할인마트 맞은편 골목 안쪽),중앙안전센터,N,Y,2011,1,3,150,진주소방서,055-760-9296,2019-04-30
1-022,01,경상남도,진주시,48170,경상남도 진주시 창렬로 187,,35.200116,128.078865,푸른재능어린이집 앞,중앙안전센터,N,Y,2018,1,3,150,진주소방서,055-760-9296,2019-04-30
1-031,01,경상남도,진주시,48170,경상남도 진주시 의병로71번길 10,,35.200054,128.067839,주택 앞(홑이불자락 옆),중앙안전센터,N,Y,2014,1,3,150,진주소방서,055-760-9296,2019-04-30
2-085,01,경상남도,진주시,48170,경상남도 진주시 의곡길30번길 6,,35.199773,128.082577,중앙동 봉수현장민원실 왼쪽 약사여래불 앞,중앙안전센터,N,Y,2015,1,3,150,진주소방서,055-760-9296,2019-04-30
1-077,02,경상남도,진주시,48170,경상남도 진주시 의병로 252,,35.1996971,128.085242,생고기의 정석 앞(삼전빌라 옆),중앙안전센터,N,Y,2013,1,3,150,진주소방서,055-760-9296,2019-04-30
4-079,01,경상남도,진주시,48170,경상남도 진주시 대신로 435,,35.19939853,128.1159867,현대주유소 건너편 도로상 펭귄한의원 앞,상대안전센터,Y,Y,1982,1,3,100,진주소방서,055-760-9296,2019-04-30
11,04,경상남도,진주시,48170,경상남도 진주시 창렬로 178,,35.19953656,128.0764505,진주카에어컨부분정비 앞(진주여고 맞은편),중앙안전센터,N,Y,1950,1,3,150,진주소방서,055-760-9296,2019-04-30
1-033,02,경상남도,진주시,48170,경상남도 진주시 의병로80번길 7,,35.199392,128.0693085,주택 옆(개별화물협회 맞은편) 도로,중앙안전센터,N,Y,1997,1,3,150,진주소방서,055-760-9296,2019-04-30
4-078,01,경상남도,진주시,48170,경상남도 진주시 대신로 431,,35.1990666,128.116021,초전현대주유소 옆 삼거리 도로상,상대안전센터,Y,Y,2017,1,3,100,진주소방서,055-760-9296,2019-04-30
1-026,01,경상남도,진주시,48170,경상남도 진주시 진주성로 110,,35.1992907,128.0755066,본안경점 앞(진주여고사거리),중앙안전센터,Y,Y,1997,1,3,150,진주소방서,055-760-9296,2019-04-30
1-076,01,경상남도,진주시,48170,경상남도 진주시 향교로27번길 15,,35.199209,128.0850202,석정건축 앞 모서리,중앙안전센터,Y,Y,2010,1,3,150,진주소방서,055-760-9296,2019-04-30
2-123,01,경상남도,진주시,48170,경상남도 진주시 덕천로 308-1,,35.19936113,127.8971371,조계마을정류소 옆,평거안전센터,N,Y,2012,1,3,100,진주소방서,055-760-9296,2019-04-30
1-078,01,경상남도,진주시,48170,경상남도 진주시 향교로 43,,35.199076,128.086615,봉래초등학교 정문 앞 횡단보도 밑(봉래문구 앞),중앙안전센터,Y,Y,1997,1,3,150,진주소방서,055-760-9296,2019-04-30
8,04,경상남도,진주시,48170,경상남도 진주시 향교로 43,,35.199067,128.0866146,봉래초등학교 정문 앞 횡단보도 밑(봉래문구 앞),중앙안전센터,N,Y,1966,1,3,150,진주소방서,055-760-9296,2019-04-30
1-116,01,경상남도,진주시,48170,경상남도 진주시 비봉로90번길 11,,35.198828,128.080194,삼우빌라 앞,중앙안전센터,N,Y,1994,1,3,150,진주소방서,055-760-9296,2019-04-30
1-117,01,경상남도,진주시,48170,경상남도 진주시 향교로 71,,35.19876728,128.089507,주택 앞(연꽃보살 옆),중앙안전센터,N,Y,1996,1,3,150,진주소방서,055-760-9296,2019-04-30
1-029,01,경상남도,진주시,48170,경상남도 진주시 창렬로 148,,35.198795,128.073237,복이조은집 앞,중앙안전센터,Y,Y,1997,1,3,150,진주소방서,055-760-9296,2019-04-30
16,04,경상남도,진주시,48170,경상남도 진주시 향교로11번길 14,,35.198769,128.083629,주택 앞(진주교회 비전관 맞은편),중앙안전센터,N,Y,1974,1,3,150,진주소방서,055-760-9296,2019-04-30
1-023,02,경상남도,진주시,48170,경상남도 진주시 비봉로85번길 14-9,,35.198749,128.077531,아라빌 앞(그린빌 맞은편),중앙안전센터,N,Y,1997,1,3,150,진주소방서,055-760-9296,2019-04-30
1-024,02,경상남도,진주시,48170,경상남도 진주시 창렬로180번길 14,,35.198657,128.076842,상록페인트 앞(진주여고 맞은편 블록),중앙안전센터,N,Y,1997,1,3,150,진주소방서,055-760-9296,2019-04-30
1-083,02,경상남도,진주시,48170,경상남도 진주시 의곡길8번길 14,,35.198274,128.083988,풍농제분소(자매어린이집 뒤) 앞,중앙안전센터,N,Y,1997,1,3,150,진주소방서,055-760-9296,2019-04-30
1-035,01,경상남도,진주시,48170,경상남도 진주시 북장대로 92,,35.1981811,128.072373,루나미용실 앞(시민탕에서 상봉주공1차아파트 가는 길),중앙안전센터,Y,Y,1997,1,3,150,진주소방서,055-760-9296,2019-04-30
1-021,01,경상남도,진주시,48170,경상남도 진주시 진주대로1108번길 13-2,,35.1981494,128.0812029,샵앤샵 앞 인도(진주중학교 정문에서 서편 50M),중앙안전센터,Y,Y,2008,1,3,150,진주소방서,055-760-9296,2019-04-30
1-030,01,경상남도,진주시,48170,경상남도 진주시 창렬로126,,35.198177,128.071114,새마을금고 앞,중앙안전센터,N,Y,1997,1,3,150,진주소방서,055-760-9296,2019-04-30
1-096,02,경상남도,진주시,48170,경상남도 진주시 향교로17번길 6,,35.198161,128.084469,종합건축 옆(자매어린이집 건너편 길 모퉁이),중앙안전센터,N,Y,1997,1,3,150,진주소방서,055-760-9296,2019-04-30
10,04,경상남도,진주시,48170,경상남도 진주시 비봉로 82,,35.197996,128.079574,허약국 앞,중앙안전센터,N,Y,1974,1,3,150,진주소방서,055-760-9296,2019-04-30
1-097,02,경상남도,진주시,48170,경상남도 진주시 향교로 17-1,,35.197959,128.084626,삼화페인트 앞(송월타농 진주대리점 건너편),중앙안전센터,N,Y,1997,1,3,150,진주소방서,055-760-9296,2019-04-30
1-075,01,경상남도,진주시,48170,경상남도 진주시 향교로 30,,35.197945,128.085856,육류왕 물류센터 앞(옥수탕 건너편),중앙안전센터,N,Y,2002,1,3,150,진주소방서,055-760-9296,2019-04-30
1-079,01,경상남도,진주시,48170,경상남도 진주시 옥봉길9번길 20-1,,35.197674,128.0873149,연화사 남편 주차관리소 옆 인도,중앙안전센터,N,Y,2013,1,3,150,진주소방서,055-760-9296,2019-04-30
1-093,01,경상남도,진주시,48170,경상남도 진주시 진주성로87번길 8,,35.1973735,128.075242,상봉떡방앗간 맞은편(목화참기름집 앞),중앙안전센터,Y,Y,1995,1,3,150,진주소방서,055-760-9296,2019-04-30
1-034,01,경상남도,진주시,48170,경상남도 진주시 창렬로 104,,35.197401,128.068855,진주보건대학 입구 최신컴퓨터세탁소 앞,중앙안전센터,N,Y,1997,1,3,150,진주소방서,055-760-9296,2019-04-30
1-036,02,경상남도,진주시,48170,경상남도 진주시 북장대로 82,,35.1972939,128.072759,시민탕옆,중앙안전센터,N,Y,2013,1,3,150,진주소방서,055-760-9296,2019-04-30
1-087,01,경상남도,진주시,48170,경상남도 진주시 향교로109번길 27,,35.1972793,128.095076,안골 끝 서영석 집 앞,중앙안전센터,Y,Y,1997,1,3,150,진주소방서,055-760-9296,2019-04-30
1-108,01,경상남도,진주시,48170,경상남도 진주시 북장대로85번길 11,,35.197288,128.071821,상봉어린이집 정문 앞,중앙안전센터,N,Y,1997,1,3,150,진주소방서,055-760-9296,2019-04-30
1-084,02,경상남도,진주시,48170,경상남도 진주시 향교로 97,,35.197228,128.0916269,시영아파트 맞은편 사운드온 앞,중앙안전센터,N,Y,1997,1,3,150,진주소방서,055-760-9296,2019-04-30
1-126,01,경상남도,진주시,48170,경상남도 진주시 장대로63번길 10-9,,35.197039,128.085633,오성상회에서 북쪽으로 약 10m 지점,중앙안전센터,N,Y,2003,1,3,150,진주소방서,055-760-9296,2019-04-30
1-073,02,경상남도,진주시,48170,경상남도 진주시 촉석로225번길 6,,35.1968504,128.086348,동아상회 앞(대신탕 부근),중앙안전센터,N,Y,2013,1,3,150,진주소방서,055-760-9296,2019-04-30
1-037,01,경상남도,진주시,48170,경상남도 진주시 북장대로 76,,35.196779,128.072962,중앙익스프레스 앞,중앙안전센터,Y,Y,1997,1,3,150,진주소방서,055-760-9296,2019-04-30
1-020,01,경상남도,진주시,48170,경상남도 진주시 진주대로1109,,35.19675228,128.081435,갤러리아백화점 주차 타워 버스승강장,중앙안전센터,N,Y,1997,1,3,150,진주소방서,055-760-9296,2019-04-30
1-086,02,경상남도,진주시,48170,경상남도 진주시 향교로109번길 17,,35.1967484,128.093865,안골 원일빌라 우측 5M 도로상,중앙안전센터,N,Y,1997,1,3,150,진주소방서,055-760-9296,2019-04-30
4-095,01,경상남도,진주시,48170,경상남도 진주시 말티고개로102번길 8,,35.196739,128.112466,대영아파트 입구 소진정 정육신당 앞,상대안전센터,Y,Y,2009,1,3,100,진주소방서,055-760-9296,2019-04-30
1-121,01,경상남도,진주시,48170,경상남도 진주시 진주대로1134번길 6,,35.196672,128.078973,아이스크림호텔 옆,중앙안전센터,N,Y,1997,1,3,150,진주소방서,055-760-9296,2019-04-30
4-077,01,경상남도,진주시,48170,경상남도 진주시 말티고개로 125,,35.196402,128.1152835,르노삼성자동차 동진주 대리점 앞,상대안전센터,N,Y,1979,1,3,100,진주소방서,055-760-9296,2019-04-30
1-099,02,경상남도,진주시,48170,경상남도 진주시 진주대로1164번길 11,,35.196352,128.075714,대흥용접 앞(서부단위농협 봉곡지점 뒤),중앙안전센터,N,Y,1997,1,3,150,진주소방서,055-760-9296,2019-04-30
1-082,02,경상남도,진주시,48170,경상남도 진주시 옥봉길 29,,35.1962625,128.090325,씨앗고개 정상 노벨문화사 앞,중앙안전센터,N,Y,1997,1,3,150,진주소방서,055-760-9296,2019-04-30
1-109,01,경상남도,진주시,48170,경상남도 진주시 진주대로1208번길 25,,35.196261,128.069384,로얄맨션 앞(한주아파트 3동 건너편),중앙안전센터,N,Y,1995,1,3,150,진주소방서,055-760-9296,2019-04-30
1-103,02,경상남도,진주시,48170,경상남도 진주시 옥봉길12번길 3,,35.196249,128.088673,전 미용실 앞,중앙안전센터,N,Y,2003,1,3,150,진주소방서,055-760-9296,2019-04-30
1-048,01,경상남도,진주시,48170,경상남도 진주시 진주대로 1125,,35.1961951,128.079754,독도는 우리땅 앞(전화국사거리),중앙안전센터,Y,Y,2016,1,3,150,진주소방서,055-760-9296,2019-04-30
9,04,경상남도,진주시,48170,경상남도 진주시 장대로 52,,35.196095,128.087455,동일쌀상회 옆(신수정주차장 맞은편),중앙안전센터,N,Y,1978,1,3,150,진주소방서,055-760-9296,2019-04-30
1-094,02,경상남도,진주시,48170,경상남도 진주시 진주대로 1164번길 5,,35.1959778,128.075709,할매집소머리곰탕 앞(국일탕 옆),중앙안전센터,N,Y,1997,1,3,150,진주소방서,055-760-9296,2019-04-30
2-087,02,경상남도,진주시,48170,경상남도 진주시 촉석로177번길 10,,35.195849,128.081326,힐튼장 맞은편(한솔원룸 앞),중앙안전센터,N,Y,2011,1,3,150,진주소방서,055-760-9296,2019-04-30
1-046,02,경상남도,진주시,48170,경상남도 진주시 진주대로 1143,,35.195839,128.0778905,CU편의점 옆(진주약국 옆),중앙안전센터,N,Y,1997,1,3,150,진주소방서,055-760-9296,2019-04-30
2-124,01,경상남도,진주시,48170,경상남도 진주시 덕천로 268번길 16,,35.19693573,127.8989551,조계마을회관 옆,평거안전센터,N,Y,2012,1,3,100,진주소방서,055-760-9296,2019-04-30
1-017,01,경상남도,진주시,48170,경상남도 진주시 촉석로 185번길 5,,35.195679,128.082047,한침구한의원 사거리 GS25 편의점 앞,중앙안전센터,Y,Y,2008,1,3,150,진주소방서,055-760-9296,2019-04-30
1-124,01,경상남도,진주시,48170,경상남도 진주시 북장대로 60번길 11,,35.1955909,128.0745291,중앙119안전센터 좌측 앞,중앙안전센터,Y,Y,2014,1,3,150,진주소방서,055-760-9296,2019-04-30
1-014,01,경상남도,진주시,48170,경상남도 진주시 진주대로 1077,,35.195591,128.083171,고려보석 앞,중앙안전센터,Y,Y,1997,1,3,150,진주소방서,055-760-9296,2019-04-30
12,04,경상남도,진주시,48170,경상남도 진주시 진주성로61번길 17-1,,35.195552,128.078403,스카이모텔앞 도로 중앙,중앙안전센터,N,Y,1976,1,3,150,진주소방서,055-760-9296,2019-04-30
1-042,01,경상남도,진주시,48170,경상남도 진주시 북장대로 60,,35.1954752,128.073459,건영빌 앞,중앙안전센터,N,Y,1997,1,3,150,진주소방서,055-760-9296,2019-04-30
1-038,02,경상남도,진주시,48170,경상남도 진주시 북장대로63번길 7,,35.1953821,128.072551,대성빌 차고 입구,중앙안전센터,N,Y,1997,1,3,150,진주소방서,055-760-9296,2019-04-30
1-080,02,경상남도,진주시,48170,경상남도 진주시 진양호로589번길 14-1,,35.195342,128.089778,부산카서비스(넥센) 옆,중앙안전센터,N,Y,2018,1,3,150,진주소방서,055-760-9296,2019-04-30
2,04,경상남도,진주시,48170,경상남도 진주시 진주대로 1070번길 16-4,,35.1952737,128.0853313,중앙시장3구 유공상회 앞,중앙안전센터,N,Y,1950,1,3,150,진주소방서,055-760-9296,2019-04-30
1-039,02,경상남도,진주시,48170,경상남도 진주시 창렬로 76,,35.195258,128.069336,동경철물전기 앞(동국3급정비 옆),중앙안전센터,N,Y,1997,1,3,150,진주소방서,055-760-9296,2019-04-30
1-085,01,경상남도,진주시,48170,경상남도 진주시 향교로 121,,35.195246,128.092747,수정이용원 앞,중앙안전센터,N,Y,1997,1,3,150,진주소방서,055-760-9296,2019-04-30
1-018,01,경상남도,진주시,48170,경상남도 진주시 비봉로 49,,35.195105,128.080229,미니스탑 진주봉곡점 사거리,중앙안전센터,Y,Y,2013,1,3,150,진주소방서,055-760-9296,2019-04-30
6,04,경상남도,진주시,48170,경상남도 진주시 진주대로 1070번길 6,,35.1949599,128.084107,뱅뱅대리점 앞(진주중앙 새마을금고 중앙지점 사거리),중앙안전센터,N,Y,1966,1,3,150,진주소방서,055-760-9296,2019-04-30
5-041,01,경상남도,진주시,48170,경상남도 진주시 하대로 19,,35.1946006,128.1154304,도심속 회해산물도매센터 옆 전봇대 인근,상대안전센터,N,Y,2017,1,3,100,진주소방서,055-760-9296,2019-04-30
2-001,01,경상남도,진주시,48170,경상남도 진주시 진주대로 1322,,35.1950224,128.059207,세븐일레븐 이현웰가점 앞,평거안전센터,N,Y,2015,1,3,100,진주소방서,055-760-9296,2019-04-30
2-082,01,경상남도,진주시,48170,경상남도 진주시 진주대로 1278,,35.194611,128.0632893,유곡한보아파트 도로변 인도,평거안전센터,N,Y,2009,1,3,100,진주소방서,055-760-9296,2019-04-30
1-043,02,경상남도,진주시,48170,경상남도 진주시 진주대로 1191,,35.194582,128.073135,한일교통(경남택시조합) 북쪽 횡단보도 앞(봉안동사거리),중앙안전센터,N,Y,1997,1,3,150,진주소방서,055-760-9296,2019-04-30
1-044,01,경상남도,진주시,48170,경상남도 진주시 북장대로 50,,35.194545,128.074033,하나님의 교회 앞,중앙안전센터,N,Y,1997,1,3,150,진주소방서,055-760-9296,2019-04-30
1-098,02,경상남도,진주시,48170,경상남도 진주시 촉석로186번길 8,,35.1944968,128.082461,김정중이비인후과 앞,중앙안전센터,N,Y,1997,1,3,150,진주소방서,055-760-9296,2019-04-30
1-127,01,경상남도,진주시,48170,경상남도 진주시 창렬로69번길 10,,35.194468,128.068338,푸른솔중고등학교 앞 화단,중앙안전센터,Y,Y,2014,1,3,150,진주소방서,055-760-9296,2019-04-30
1-049,02,경상남도,진주시,48170,경상남도 진주시 촉석로149번길 5,,35.194443,128.078422,친구야노래방 앞 도로 중앙,중앙안전센터,N,Y,2012,1,3,150,진주소방서,055-760-9296,2019-04-30
1-045,01,경상남도,진주시,48170,경상남도 진주시 진양호로547번길 15,,35.1943819,128.084357,팜스프링 앞,중앙안전센터,N,Y,1997,1,3,150,진주소방서,055-760-9296,2019-04-30
1-091,01,경상남도,진주시,48170,경상남도 진주시 진양호로 575,,35.194365,128.088356,강아지나라(구.부산교통사거리) 앞,중앙안전센터,N,Y,1997,1,3,150,진주소방서,055-760-9296,2019-04-30
2-112,01,경상남도,진주시,48170,경상남도 진주시 곤수로 899,,35.1942221,127.9377851,수곡119구급지원센터 앞,평거안전센터,N,Y,2012,1,3,100,진주소방서,055-760-9296,2019-04-30
2-119,01,경상남도,진주시,48170,경상남도 진주시 진주대로 1302,,35.194319,128.061402,타이어테크 앞,평거안전센터,N,Y,2013,1,3,100,진주소방서,055-760-9296,2019-04-30
1-100,01,경상남도,진주시,48170,경상남도 진주시 진주성로 51-1,,35.194279,128.076953,파리바게트 진주봉곡점 앞,중앙안전센터,N,Y,2001,1,3,150,진주소방서,055-760-9296,2019-04-30
1-071,01,경상남도,진주시,48170,경상남도 진주시 진양호로 567-1,,35.1941851,128.087365,토탈헤어샵 앞,중앙안전센터,N,Y,2015,1,3,150,진주소방서,055-760-9296,2019-04-30
1-040,01,경상남도,진주시,48170,경상남도 진주시 진주대로 1214,,35.19419055,128.0702928,국제로타리 동북편 인도상,중앙안전센터,Y,Y,1997,1,3,150,진주소방서,055-760-9296,2019-04-30
1-016,01,경상남도,진주시,48170,경상남도 진주시 비봉로34번길 11,,35.1940743,128.082089,정승화비뇨기과 앞(중앙병원 후문),중앙안전센터,Y,Y,1997,1,3,150,진주소방서,055-760-9296,2019-04-30
1-092,01,경상남도,진주시,48170,경상남도 진주시 장대로 30,,35.194082,128.088505,성진종합목재 앞(우성물푸레사우나 옆),중앙안전센터,N,Y,1997,1,3,150,진주소방서,055-760-9296,2019-04-30
5-068,01,경상남도,진주시,48170,경상남도 진주시 대신로 371,,35.19374242,128.1163309,혼다모터사이클 진주점 앞,상대안전센터,N,Y,2017,1,3,100,진주소방서,055-760-9296,2019-04-30
1,04,경상남도,진주시,48170,경상남도 진주시 진양호로555번길 5-2,,35.194011,128.085823,중앙시장1구 대원침구앞,중앙안전센터,N,Y,1995,1,3,150,진주소방서,055-760-9296,2019-04-30
1-088,01,경상남도,진주시,48170,경상남도 진주시 북장대로 36,,35.1933311,128.074325,서린주니어 스쿨 앞(봉곡초등학교 정문),중앙안전센터,N,Y,2013,1,3,150,진주소방서,055-760-9296,2019-04-30
1-070,01,경상남도,진주시,48170,경상남도 진주시 진양호로 570,,35.1939333,128.0877622,덕성빌딩(경남취업지원센터 건물) 앞,중앙안전센터,N,Y,2008,1,3,150,진주소방서,055-760-9296,2019-04-30
2-086,01,경상남도,진주시,48170,경상남도 진주시 촉석로 127,,35.193854,128.076284,서부시장 팔도해장국 앞(서부시장 번영회 사무실 옆),중앙안전센터,N,Y,1994,1,3,150,진주소방서,055-760-9296,2019-04-30
1-013,02,경상남도,진주시,48170,경상남도 진주시 진주대로 1057,,35.193851,128.083671,몰에이지 남편 도로,중앙안전센터,N,Y,1997,1,3,150,진주소방서,055-760-9296,2019-04-30
14,04,경상남도,진주시,48170,경상남도 진주시 촉석로 129,,35.19361579,128.0765656,서부시장 대한함석공사 앞(서부시장 번영회 사무실 입구),중앙안전센터,N,Y,1950,1,3,150,진주소방서,055-760-9296,2019-04-30
1-050,01,경상남도,진주시,48170,경상남도 진주시 진주성로 47,,35.1937927,128.077081,봉곡새마을금고 건너편 횡단보도 앞,중앙안전센터,N,Y,1997,1,3,150,진주소방서,055-760-9296,2019-04-30
7,04,경상남도,진주시,48170,경상남도 진주시 비봉로33번길 2,,35.193785,128.080631,비봉지구대 앞 도로,중앙안전센터,N,Y,1950,1,3,150,진주소방서,055-760-9296,2019-04-30
4-089,01,경상남도,진주시,48170,경상남도 진주시 하대로69번길,,35.193754,128.119294,중앙고 정문 동편 80M 지점,상대안전센터,N,Y,1985,1,3,100,진주소방서,055-760-9296,2019-04-30
4-098,02,경상남도,진주시,48170,경상남도 진주시 하대로 81번길 3,,35.1934473,128.1204285,옥돌탕 주차장 옆,상대안전센터,N,Y,1988,1,3,100,진주소방서,055-760-9296,2019-04-30
4-100,02,경상남도,진주시,48170,경상남도 진주시 하대로 115,,35.19343077,128.1242978,셀렉트 커피 옆,상대안전센터,N,Y,1989,1,3,100,진주소방서,055-760-9296,2019-04-30
"반성35호",01,경상남도,진주시,48170,경상남도 진주시 이반성면 장안로 65번길 71,,35.1934187,128.346842,장안마을회관,문산안전센터,N,Y,2013,1,3,100,진주소방서,055-760-9296,2019-04-30
4-099,02,경상남도,진주시,48170,경상남도 진주시 하대로 89,,35.1933606,128.1215046,삼전프라자 북편,상대안전센터,N,Y,1989,1,3,100,진주소방서,055-760-9296,2019-04-30
1-119,01,경상남도,진주시,48170,경상남도 진주시 진주대로 1236,,35.193636,128.068173,효성한우숯불갈비 앞(진주모텔 건너편 시내버스정류장 옆),중앙안전센터,Y,Y,1997,1,3,150,진주소방서,055-760-9296,2019-04-30
1-015,02,경상남도,진주시,48170,경상남도 진주시 비봉로24번길15,,35.1935988,128.082781,진주우체국 앞 사거리,중앙안전센터,N,Y,2013,1,3,150,진주소방서,055-760-9296,2019-04-30
3,04,경상남도,진주시,48170,경상남도 진주시 진양호로 547-2,,35.1934943,128.085271,중앙시장1구 입구 신흥만물철물 앞,중앙안전센터,N,Y,1966,1,3,150,진주소방서,055-760-9296,2019-04-30
1-025,01,경상남도,진주시,48170,경상남도 진주시 진주성로 45,,35.1934582,128.077175,강동한의원 앞,중앙안전센터,N,Y,1997,1,3,150,진주소방서,055-760-9296,2019-04-30
1-101,01,경상남도,진주시,48170,경상남도 진주시 진주성로 45,,35.193484,128.077186,박형수한의원 옆,중앙안전센터,N,Y,1997,1,3,150,진주소방서,055-760-9296,2019-04-30
1-072,01,경상남도,진주시,48170,경상남도 진주시 진양호로 556-1,,35.193468,128.086349,수협은행 진주지점 앞,중앙안전센터,N,Y,1997,1,3,150,진주소방서,055-760-9296,2019-04-30
1-019,01,경상남도,진주시,48170,경상남도 진주시 촉석로150번길 11,,35.1932758,128.0791183,진주교육지원청 북서편 모서리(진주중앙교회 옆),중앙안전센터,N,Y,2014,1,3,150,진주소방서,055-760-9296,2019-04-30
"공설22호",01,경상남도,진주시,48170,경상남도 진주시 도동로 256,,35.192994,128.1220728,삼전프라자(탑마트) 동편 옛날시골통닭 앞,상대안전센터,N,Y,1997,1,3,100,진주소방서,055-760-9296,2019-04-30
2-128,01,경상남도,진주시,48170,경상남도 진주시 옥수로 577번길 2,,35.193301,127.926353,직금마을정류소 옆,평거안전센터,N,Y,2012,1,3,100,진주소방서,055-760-9296,2019-04-30
1-069,01,경상남도,진주시,48170,경상남도 진주시 장대로 20,,35.193281,128.088816,삼화농약사 앞(장대어린이 놀이터 건너),중앙안전센터,N,Y,1997,1,3,150,진주소방서,055-760-9296,2019-04-30
1-122,02,경상남도,진주시,48170,경상남도 진주시 북장대로41번길 21,,35.193255,128.071871,부안모텔(구. 천궁탕) 정문 건너편,중앙안전센터,N,Y,1998,1,3,150,진주소방서,055-760-9296,2019-04-30
1-051,01,경상남도,진주시,48170,경상남도 진주시 촉석로 126,,35.193247,128.076162,가보자노래방 앞,중앙안전센터,N,Y,2006,1,3,150,진주소방서,055-760-9296,2019-04-30
2-007,01,경상남도,진주시,48170,경상남도 진주시 평거로 293,,35.1929633,128.0614361,경남맨션 앞,평거안전센터,Y,Y,2016,1,3,100,진주소방서,055-760-9296,2019-04-30
"공설24호",04,경상남도,진주시,48170,경상남도 진주시 하대로 142,,35.19314076,128.126711,현대아파트 후문 앞,상대안전센터,N,Y,1994,1,3,100,진주소방서,055-760-9296,2019-04-30
1-052,01,경상남도,진주시,48170,경상남도 진주시 촉석로 114-1,,35.192958,128.075141,서부시장 오복국수 앞,중앙안전센터,N,Y,2013,1,3,150,진주소방서,055-760-9296,2019-04-30
2-059,01,경상남도,진주시,48170,경상남도 진주시 서장대로 301,,35.192871,128.0658962,촉석원 앞,평거안전센터,N,Y,1997,1,3,100,진주소방서,055-760-9296,2019-04-30
4-082,02,경상남도,진주시,48170,경상남도 진주시 도동로 250,,35.192573,128.1221019,삼전프라자 맞은편 삼전약국 앞,상대안전센터,N,Y,1981,1,3,100,진주소방서,055-760-9296,2019-04-30
2-009,01,경상남도,진주시,48170,경상남도 진주시 서장대로 253번길 14,,35.1925933,128.0606496,일반주택 앞,평거안전센터,Y,Y,2013,1,3,100,진주소방서,055-760-9296,2019-04-30
2-060,01,경상남도,진주시,48170,경상남도 진주시 서장대로 295,,35.192638,128.0653184,해피팻 앞,평거안전센터,Y,Y,1997,1,3,100,진주소방서,055-760-9296,2019-04-30
1-104,01,경상남도,진주시,48170,경상남도 진주시 창렬로 47,,35.192635,128.0699496,대양빌 앞,중앙안전센터,N,Y,1995,1,3,150,진주소방서,055-760-9296,2019-04-30
1-113,01,경상남도,진주시,48170,경상남도 진주시 촉석로 95-1,,35.1925909,128.073111,봉안빌(봉곡할인마트) 앞,중앙안전센터,Y,Y,1994,1,3,150,진주소방서,055-760-9296,2019-04-30
1-111,01,경상남도,진주시,48170,경상남도 진주시 진양호로 619,,35.1924706,128.092171,땡초김밥전문점 앞(동양장여관 맞은편),중앙안전센터,N,Y,1994,1,3,150,진주소방서,055-760-9296,2019-04-30
2-061,01,경상남도,진주시,48170,경상남도 진주시 서장대로 285,,35.1925099,128.0642277,동양카센터 앞,평거안전센터,Y,Y,2012,1,3,100,진주소방서,055-760-9296,2019-04-30
5-055,02,경상남도,진주시,48170,경상남도 진주시 하대로70번길 10,,35.192246,128.1191826,성이식당 맞은편 주택,상대안전센터,N,Y,1994,1,3,100,진주소방서,055-760-9296,2019-04-30
1-041,01,경상남도,진주시,48170,경상남도 진주시 창렬로 42,,35.1925148,128.070721,쌩큐마트 앞,중앙안전센터,N,Y,1997,1,3,150,진주소방서,055-760-9296,2019-04-30
1-063,01,경상남도,진주시,48170,경상남도 진주시 진양호로 526,,35.192397,128.0830168,신한은행 앞(롯데시네마 건너편),중앙안전센터,N,Y,2014,1,3,150,진주소방서,055-760-9296,2019-04-30
2-090,01,경상남도,진주시,48170,경상남도 진주시 남강로659번길 16,,35.192423,128.083451,원주통닭집 앞(진주시청소년수련관 동편),중앙안전센터,Y,Y,2010,1,3,150,진주소방서,055-760-9296,2019-04-30
5-056,02,경상남도,진주시,48170,경상남도 진주시 도동로 239번길 14,,35.1920267,128.1203199,하대성당앞 사거리 도로상,상대안전센터,N,Y,1994,1,3,100,진주소방서,055-760-9296,2019-04-30
4-076,01,경상남도,진주시,48170,경상남도 진주시 대신로 356,,35.192322,128.1169624,선학아파트 건너 아이누리안경 앞,상대안전센터,N,Y,2011,1,3,100,진주소방서,055-760-9296,2019-04-30
1-102,01,경상남도,진주시,48170,경상남도 진주시 진주성로 29,,35.1922843,128.077657,이마트 옆 노벨도서 앞,중앙안전센터,N,Y,1997,1,3,150,진주소방서,055-760-9296,2019-04-30
2-125,01,경상남도,진주시,48170,경상남도 진주시 덕천로 202,,35.192301,127.9041793,하조계마을정류소 옆,평거안전센터,Y,Y,2012,1,3,100,진주소방서,055-760-9296,2019-04-30
1-110,01,경상남도,진주시,48170,경상남도 진주시 진양호로620번길 17,,35.192265,128.090154,서울회관 7080 정문 앞,중앙안전센터,Y,Y,1997,1,3,150,진주소방서,055-760-9296,2019-04-30
1-107,01,경상남도,진주시,48170,경상남도 진주시 북장대로 22,,35.192113,128.074778,성림탕 북편 벽산페인트 건너편,중앙안전센터,N,Y,1997,1,3,150,진주소방서,055-760-9296,2019-04-30
2-003,01,경상남도,진주시,48170,경상남도 진주시 서장대로 275,,35.1921123,128.0633484,유신맨션 입구,평거안전센터,N,Y,1997,1,3,100,진주소방서,055-760-9296,2019-04-30
2-011,02,경상남도,진주시,48170,경상남도 진주시 서장대로 223번길 17-1,,35.1921487,128.0572781,일반주택 앞,평거안전센터,N,Y,1997,1,3,100,진주소방서,055-760-9296,2019-04-30
5-042,02,경상남도,진주시,48170,경상남도 진주시 남강로 1463번길 8,,35.192047,128.127689,폴리텍7대확 뒤 카센터 옆,상대안전센터,N,Y,1994,1,3,100,진주소방서,055-760-9296,2019-04-30
1-066,01,경상남도,진주시,48170,경상남도 진주시 남강로 687,,35.1915731,128.0868867,미가커피숍 앞,중앙안전센터,N,Y,2007,1,3,150,진주소방서,055-760-9296,2019-04-30
"사봉20호",01,경상남도,진주시,48170,경상남도 진주시 사봉면 산업단지로27번길 7,,35.191995,128.275256,사봉변전소,문산안전센터,Y,Y,2012,1,3,100,진주소방서,055-760-9296,2019-04-30
2-005,02,경상남도,진주시,48170,경상남도 진주시 서장대로 280,,35.191989,128.0638347,이현할인마트 옆,평거안전센터,N,Y,1997,1,3,100,진주소방서,055-760-9296,2019-04-30
5-069,02,경상남도,진주시,48170,경상남도 진주시 도동로240번길 12,,35.1917084,128.123146,삼전3차아파트 정문옆 꾸꾸앞,상대안전센터,N,Y,1997,1,3,100,진주소방서,055-760-9296,2019-04-30
1-062,01,경상남도,진주시,48170,경상남도 진주시 진양호로 508-1,,35.191939,128.0814098,등산아웃도어 매장 앞(현대자동차 판매점 건너편),중앙안전센터,N,Y,1997,1,3,150,진주소방서,055-760-9296,2019-04-30
5-057,02,경상남도,진주시,48170,경상남도 진주시 대신로 348번길 11,,35.1916226,128.117884,CU편의점 앞 도로상,상대안전센터,N,Y,1994,1,3,100,진주소방서,055-760-9296,2019-04-30
1-106,01,경상남도,진주시,48170,경상남도 진주시 북장대로 19,,35.191902,128.074556,성림탕 서편 문화이용원 앞,중앙안전센터,N,Y,1997,1,3,150,진주소방서,055-760-9296,2019-04-30
1-128,01,경상남도,진주시,48170,경상남도 진주시 장대로 2,,35.1917672,128.088975,독일안경원 앞,중앙안전센터,Y,Y,1997,1,3,150,진주소방서,055-760-9296,2019-04-30
2-004,01,경상남도,진주시,48170,경상남도 진주시 서장대로 263,,35.19183628,128.062189,이현의원 앞,평거안전센터,Y,Y,2015,1,3,100,진주소방서,055-760-9296,2019-04-30
1-067,01,경상남도,진주시,48170,경상남도 진주시 남강로 727,,35.191584,128.0912011,진주시 남강로 727(옥봉동) 앞 인도상,중앙안전센터,N,Y,2015,1,3,150,진주소방서,055-760-9296,2019-04-30
2-008,01,경상남도,진주시,48170,경상남도 진주시 서장대로 253,,35.1917178,128.060914,소양탕 앞,평거안전센터,Y,Y,1997,1,3,100,진주소방서,055-760-9296,2019-04-30
1-065,01,경상남도,진주시,48170,경상남도 진주시 남강로 670-1,,35.1911247,128.0848844,촉석뷰티아카데미 앞(중앙지하상가 입구),중앙안전센터,N,Y,1997,1,3,150,진주소방서,055-760-9296,2019-04-30
2-032,01,경상남도,진주시,48170,경상남도 진주시 신안로 162,,35.19162688,128.0670664,홈마트할인매장 앞,평거안전센터,N,Y,1997,1,3,100,진주소방서,055-760-9296,2019-04-30
15,04,경상남도,진주시,48170,경상남도 진주시 진양호로 484,,35.191188,128.078927,LG전자 베스트샵 주차장 입구,중앙안전센터,N,Y,1974,1,3,150,진주소방서,055-760-9296,2019-04-30
4-075,01,경상남도,진주시,48170,경상남도 진주시 대신로 342,,35.1909086,128.1170229,프로스펙트 앞,상대안전센터,N,Y,1979,1,3,100,진주소방서,055-760-9296,2019-04-30
2-062,01,경상남도,진주시,48170,경상남도 진주시 서장대로 247,,35.1915468,128.0603677,이현주공아파트 입구,평거안전센터,N,Y,1997,1,3,100,진주소방서,055-760-9296,2019-04-30
5-062,01,경상남도,진주시,48170,경상남도 진주시 남강로1463,,35.1914662,128.1280694,현대아파트 입구 대박할인마트 옆,상대안전센터,N,Y,1994,1,3,100,진주소방서,055-760-9296,2019-04-30
1-061,02,경상남도,진주시,48170,경상남도 진주시 비봉로 2,,35.191018,128.0820282,범죄피해자 지원센터 앞,중앙안전센터,N,Y,1997,1,3,150,진주소방서,055-760-9296,2019-04-30
2-013,02,경상남도,진주시,48170,경상남도 진주시 평거로 264-11,,35.190999,128.064027,일반주택 앞,평거안전센터,N,Y,1997,1,3,100,진주소방서,055-760-9296,2019-04-30
1-105,01,경상남도,진주시,48170,경상남도 진주시 창렬로 19,,35.190977,128.072007,부산카오디오 앞,중앙안전센터,N,Y,1997,1,3,150,진주소방서,055-760-9296,2019-04-30
5-037,01,경상남도,진주시,48170,경상남도 진주시 도동로230,,35.1907737,128.122222,동진당구장 도로건너 칠성포차앞,상대안전센터,N,Y,1993,1,3,100,진주소방서,055-760-9296,2019-04-30
4-094,02,경상남도,진주시,48170,경상남도 진주시 대신로341번길 8,,35.190481,128.116477,하대파출소 동북쪽 심미정헤어 앞 도로상,상대안전센터,N,Y,1987,1,3,100,진주소방서,055-760-9296,2019-04-30
1-057,01,경상남도,진주시,48170,경상남도 진주시 진양호로 476,,35.190796,128.077675,진주시종합사회복지회관 앞,중앙안전센터,N,Y,1997,1,3,150,진주소방서,055-760-9296,2019-04-30
1-059,02,경상남도,진주시,48170,경상남도 진주시 남강로625번길 2,,35.190711,128.0800933,공원식당 앞(진주성 공북문 건너편),중앙안전센터,N,Y,1997,1,3,150,진주소방서,055-760-9296,2019-04-30
1-120,02,경상남도,진주시,48170,경상남도 진주시 진주대로1025번길 14-3,,35.1906683,128.0839176,진주문화원 별관 주차장 모서리 전봇대 옆,중앙안전센터,N,Y,2016,1,3,150,진주소방서,055-760-9296,2019-04-30
2-010,01,경상남도,진주시,48170,경상남도 진주시 서장대로 223,,35.1907395,128.0577921,진주냉동 앞,평거안전센터,N,Y,1997,1,3,100,진주소방서,055-760-9296,2019-04-30
1-054,01,경상남도,진주시,48170,경상남도 진주시 창렬로 14,,35.190659,128.078863,노루표페인트 앞,중앙안전센터,N,Y,1997,1,3,150,진주소방서,055-760-9296,2019-04-30
2-033,01,경상남도,진주시,48170,경상남도 진주시 촉석로 54,,35.1909926,128.0685832,진주성남교회 입구 맞은편 인도,평거안전센터,N,Y,1997,1,3,100,진주소방서,055-760-9296,2019-04-30
2-035,01,경상남도,진주시,48170,경상남도 진주시 신안로 126번길 44,,35.190483,128.0694722,흥진아파트 가동입구 옆,평거안전센터,Y,Y,1997,1,3,100,진주소방서,055-760-9296,2019-04-30
1-058,02,경상남도,진주시,48170,경상남도 진주시 남강로 601,,35.19058796,128.0773161,진주성 북장대 밑(진주시종합사회복지관 옆),중앙안전센터,N,Y,1997,1,3,150,진주소방서,055-760-9296,2019-04-30
2-012,01,경상남도,진주시,48170,경상남도 진주시 서장대로 215번길,,35.190416,128.056855,진주서부농협클린주유소 앞,평거안전센터,Y,Y,2003,1,3,100,진주소방서,055-760-9296,2019-04-30
1-112,02,경상남도,진주시,48170,경상남도 진주시 남강로 750,,35.1906071,128.092453,동방호텔 주차장 옆,중앙안전센터,N,Y,1994,1,3,150,진주소방서,055-760-9296,2019-04-30
2-057,02,경상남도,진주시,48170,경상남도 진주시 숙호산로 113,,35.18783592,128.0672803,테니스장 앞,평거안전센터,N,Y,1997,1,3,100,진주소방서,055-760-9296,2019-04-30
1-056,01,경상남도,진주시,48170,경상남도 진주시 진양호로 454,,35.190201,128.075693,신앙촌상회 앞(성지새마을금고 큰길 맞은편),중앙안전센터,N,Y,1997,1,3,150,진주소방서,055-760-9296,2019-04-30
"사봉4호",01,경상남도,진주시,48170,경상남도 진주시 사봉면 사곡리 1806-1,,35.190153,128.278413,제이케이공장,문산안전센터,Y,Y,2012,1,3,100,진주소방서,055-760-9296,2019-04-30
1-060,02,경상남도,진주시,48170,경상남도 진주시 남강로 626,,35.1884777,128.0760127,진주성 동문(정문) 안 왼편,중앙안전센터,N,Y,1997,1,3,150,진주소방서,055-760-9296,2019-04-30
"사봉1호",01,경상남도,진주시,48170,경상남도 진주시 사봉면 산업단지로 95-15,,35.18950538,128.2817247,YK우드텍 진주공장,문산안전센터,Y,Y,2012,1,3,100,진주소방서,055-760-9296,2019-04-30
4-081,02,경상남도,진주시,48170,경상남도 진주시 도동로215번길 12,,35.1896292,128.120923,진주탕 맞은편,상대안전센터,N,Y,1981,1,3,100,진주소방서,055-760-9296,2019-04-30
1-053,01,경상남도,진주시,48170,경상남도 진주시 진양호로 438-1,,35.189777,128.074153,부산교통사무소 시내버스정류장 옆,중앙안전센터,Y,Y,2013,1,3,150,진주소방서,055-760-9296,2019-04-30
4-093,02,경상남도,진주시,48170,경상남도 진주시 모덕로 305,,35.1893278,128.127404,하대2동사무소앞 삼거리,상대안전센터,N,Y,1985,1,3,100,진주소방서,055-760-9296,2019-04-30
2-015,02,경상남도,진주시,48170,경상남도 진주시 평거로 249,,35.189626,128.061617,진주시립서부도서관 앞,평거안전센터,N,Y,1994,1,3,100,진주소방서,055-760-9296,2019-04-30
"사봉5호",01,경상남도,진주시,48170,경상남도 진주시 사봉면 산업단지로 71,,35.18941427,128.2780651,현대이엔지,문산안전센터,Y,Y,2012,1,3,100,진주소방서,055-760-9296,2019-04-30
5-038,01,경상남도,진주시,48170,경상남도 진주시 도동로212,,35.1892537,128.122302,"구,35번종점 파리바게트 앞",상대안전센터,N,Y,1993,1,3,100,진주소방서,055-760-9296,2019-04-30
4-074,01,경상남도,진주시,48170,경상남도 진주시 모덕로 279,,35.1890873,128.124605,성창아파트 옆 최성문한약국 앞,상대안전센터,Y,Y,2017,1,3,100,진주소방서,055-760-9296,2019-04-30
"사봉18호",01,경상남도,진주시,48170,경상남도 진주시 사봉면 산업단지로44번길 73,,35.18460479,128.2702085,신화금속,문산안전센터,Y,Y,2012,1,3,100,진주소방서,055-760-9296,2019-04-30
"사봉17호",01,경상남도,진주시,48170,경상남도 진주시 사봉면 산업단지로44번길 51,,35.18509242,128.2718365,영빈테크 4공장,문산안전센터,Y,Y,2012,1,3,100,진주소방서,055-760-9296,2019-04-30
5-051,02,경상남도,진주시,48170,경상남도 진주시 모덕로197번길 4,,35.1889385,128.115662,하대어린이집 입구,상대안전센터,N,Y,1994,1,3,100,진주소방서,055-760-9296,2019-04-30
2-034,01,경상남도,진주시,48170,경상남도 진주시 신안로 126번길 26,,35.189191,128.0706999,일반주택 앞,평거안전센터,Y,Y,1997,1,3,100,진주소방서,055-760-9296,2019-04-30
1-055,02,경상남도,진주시,48170,경상남도 진주시 남강로577번길 6,,35.189164,128.074912,골동품가게 다보성 앞,중앙안전센터,N,Y,1997,1,3,150,진주소방서,055-760-9296,2019-04-30
"사봉9호",01,경상남도,진주시,48170,경상남도 진주시 사봉면 산업단지로 50,,35.18911436,128.2757373,㈜청우,문산안전센터,Y,Y,2012,1,3,100,진주소방서,055-760-9296,2019-04-30
"사봉2호",01,경상남도,진주시,48170,경상남도 진주시 사봉면 산업단지로 95-11,,35.18924699,128.2802495,제이케이공장,문산안전센터,Y,Y,2012,1,3,100,진주소방서,055-760-9296,2019-04-30
4-071,02,경상남도,진주시,48170,경상남도 진주시 모덕로 213,,35.1887385,128.117334,유성기 정형외과 맞은편 동성가스앞,상대안전센터,N,Y,1976,1,3,100,진주소방서,055-760-9296,2019-04-30
4-073,01,경상남도,진주시,48170,경상남도 진주시 도동로 255,,35.188948,128.122025,구.35번 종점 장안약국앞 인도상,상대안전센터,N,Y,1976,1,3,100,진주소방서,055-760-9296,2019-04-30
"사봉6호",01,경상남도,진주시,48170,경상남도 진주시 사봉면 산업단지로 82,,35.18778305,128.2792516,세원공장,문산안전센터,Y,Y,2012,1,3,100,진주소방서,055-760-9296,2019-04-30
"사봉12호",01,경상남도,진주시,48170,경상남도 진주시 사봉면 산업단지로44번길 41-65,,35.18567398,128.2758417,호성하이텍,문산안전센터,Y,Y,2012,1,3,100,진주소방서,055-760-9296,2019-04-30
5-067,02,경상남도,진주시,48170,경상남도 진주시 선학산길 97-1,,35.1883579,128.113805,흥한아파트 입구,상대안전센터,N,Y,1997,1,3,100,진주소방서,055-760-9296,2019-04-30
4-092,02,경상남도,진주시,48170,경상남도 진주시 모덕로294번길 5-2,,35.1883499,128.126423,PC포유앞,상대안전센터,N,Y,1985,1,3,100,진주소방서,055-760-9296,2019-04-30
"사봉8호",01,경상남도,진주시,48170,경상남도 진주시 사봉면 산업단지로44번길 9,,35.18893215,128.2755808,일신정밀,문산안전센터,Y,Y,2012,1,3,100,진주소방서,055-760-9296,2019-04-30
2-031,01,경상남도,진주시,48170,경상남도 진주시 신안로 124,,35.188613,128.069138,삼다도주물럭 앞,평거안전센터,Y,Y,2016,1,3,100,진주소방서,055-760-9296,2019-04-30
27,04,경상남도,진주시,48170,경상남도 진주시 평거로 249-5,,35.1889235,128.062373,남가람체육공원 앞,평거안전센터,N,Y,1996,1,3,100,진주소방서,055-760-9296,2019-04-30
3-057,01,경상남도,진주시,48170,경상남도 진주시 강남로 269,,35.188381,128.087473,포시즌예식장 주차장입구 인도상,천전안전센터,N,Y,2006,1,3,100,진주소방서,055-760-9296,2019-04-30
4-087,02,경상남도,진주시,48170,경상남도 진주시 대신로 308번길 23,,35.1880622,128.1194477,상대동 보성탕북편 한성건조기앞,상대안전센터,N,Y,1985,1,3,100,진주소방서,055-760-9296,2019-04-30
"사봉3호",01,경상남도,진주시,48170,경상남도 진주시 사봉면 산업단지로 85,,35.18921529,128.2791555,제이케이공장,문산안전센터,Y,Y,2012,1,3,100,진주소방서,055-760-9296,2019-04-30
4-090,01,경상남도,진주시,48170,경상남도 진주시 모덕로 270번길,,35.188254,128.123461,골든맨션 사거리,상대안전센터,Y,Y,2017,1,3,100,진주소방서,055-760-9296,2019-04-30
3-028,01,경상남도,진주시,48170,경상남도 진주시 강남로 247,,35.188145,128.089799,칠암동 세계평화통일가정연합 앞,천전안전센터,N,Y,2003,1,3,100,진주소방서,055-760-9296,2019-04-30
"사봉10호",01,경상남도,진주시,48170,경상남도 진주시 사봉면 산업단지로44번길 18,,35.18864134,128.2740963,풍산정공,문산안전센터,Y,Y,2012,1,3,100,진주소방서,055-760-9296,2019-04-30
3-029,01,경상남도,진주시,48170,경상남도 진주시 강남로 239,,35.187997,128.090607,타임모텔 북변 100미터 인도상,천전안전센터,N,Y,2003,1,3,100,진주소방서,055-760-9296,2019-04-30
"사봉11호",01,경상남도,진주시,48170,경상남도 진주시 사봉면 산업단지로44번길 41-10,,35.18578905,128.2734721,신명기계,문산안전센터,Y,Y,2012,1,3,100,진주소방서,055-760-9296,2019-04-30
1-118,01,경상남도,진주시,48170,경상남도 진주시 서장대로393번길 7,,35.1882001,128.0729853,대림맨션 정문 앞,중앙안전센터,N,Y,1996,1,3,150,진주소방서,055-760-9296,2019-04-30
5-058,02,경상남도,진주시,48170,경상남도 진주시 도동로 196,,35.1877122,128.122407,동부농협 옆 인도상,상대안전센터,N,Y,1997,1,3,100,진주소방서,055-760-9296,2019-04-30
4-065,02,경상남도,진주시,48170,경상남도 진주시 모덕로 282,,35.1888553,128.1249326,동진초등학교 동편 담장 부근,상대안전센터,N,Y,1983,1,3,100,진주소방서,055-760-9296,2019-04-30
4-088,02,경상남도,진주시,48170,경상남도 진주시 대신로 304,,35.1875681,128.117711,홈플러스 뒤편,상대안전센터,N,Y,1985,1,3,100,진주소방서,055-760-9296,2019-04-30
"진성1호",01,경상남도,진주시,48170,경상남도 진주시 진성면 동부로 1345번길24-11,,35.187835,128.2225381,예음마을회관,문산안전센터,N,Y,2006,1,3,100,진주소방서,055-760-9296,2019-04-30
"사봉7호",01,경상남도,진주시,48170,경상남도 진주시 사봉면 산업단지로 82,,35.187768,128.2792516,세원공장,문산안전센터,Y,Y,2012,1,3,100,진주소방서,055-760-9296,2019-04-30
"공설17호",04,경상남도,진주시,48170,경상남도 진주시 진주대로 985번길 4,,35.187652,128.086264,제일예식장 서편 삼거리,천전안전센터,N,Y,1997,1,3,100,진주소방서,055-760-9296,2019-04-30
3-001,02,경상남도,진주시,48170,경상남도 진주시 진주대로987번길 9,,35.1874371,128.085901,삼호탕궁전 여관앞 전봇대앞 엄지별장,천전안전센터,N,Y,1985,1,3,100,진주소방서,055-760-9296,2019-04-30
2-030,02,경상남도,진주시,48170,경상남도 진주시 숙호산로 122,,35.18746235,128.067981,가양빌라 앞,평거안전센터,N,Y,1997,1,3,100,진주소방서,055-760-9296,2019-04-30
3-091,01,경상남도,진주시,48170,경상남도 진주시 강남로 305,,35.187409,128.083935,대성상회옆  흥사단 앞,천전안전센터,N,Y,2004,1,3,100,진주소방서,055-760-9296,2019-04-30
5-092,01,경상남도,진주시,48170,경상남도 진주시 모덕로 180,,35.1870124,128.115316,현대아파트 입구 빠게트제과점 앞,상대안전센터,N,Y,1994,1,3,100,진주소방서,055-760-9296,2019-04-30
3-041,01,경상남도,진주시,48170,경상남도 진주시 강남로 215,,35.187264,128.091768,문화예술회관내 남쪽 일방통행 도로옆 주차장내,천전안전센터,N,Y,2003,1,3,100,진주소방서,055-760-9296,2019-04-30
3-071,01,경상남도,진주시,48170,경상남도 진주시 진주대로 978,,35.187254,128.087251,이성자한복집 앞,천전안전센터,N,Y,1995,1,3,100,진주소방서,055-760-9296,2019-04-30
2-056,01,경상남도,진주시,48170,경상남도 진주시 판문로 232번길,,35.187207,128.038947,태산건설 맞은편 버스정류장,평거안전센터,Y,Y,2016,1,3,100,진주소방서,055-760-9296,2019-04-30
"사봉16호",01,경상남도,진주시,48170,경상남도 진주시 사봉면 산업단지로44번길 42,,35.18726884,128.2729683,힌두철강,문산안전센터,Y,Y,2012,1,3,100,진주소방서,055-760-9296,2019-04-30
2-075,01,경상남도,진주시,48170,경상남도 진주시 숙호산로 49,,35.18725666,128.060577,동신아파트 앞,평거안전센터,N,Y,2011,1,3,100,진주소방서,055-760-9296,2019-04-30
2-054,01,경상남도,진주시,48170,경상남도 진주시 신안로 100,,35.187095,128.070933,월드모텔 앞,평거안전센터,Y,Y,2017,1,3,100,진주소방서,055-760-9296,2019-04-30
2-050,02,경상남도,진주시,48170,경상남도 진주시 신안로 100번길15-2,,35.1871044,128.0722562,청암빌 앞,평거안전센터,N,Y,1997,1,3,100,진주소방서,055-760-9296,2019-04-30
3-030,01,경상남도,진주시,48170,경상남도 진주시 강남로 227번길13,,35.187015,128.090769,천전초교옆 미각식당앞)(예술회관~천전초교사이 일방통행 북편,천전안전센터,N,Y,2003,1,3,100,진주소방서,055-760-9296,2019-04-30
4-086,02,경상남도,진주시,48170,경상남도 진주시 도동로 183번길 14,,35.1867321,128.1208600,주노건축 앞 (진주시 도동로 183번길 14),상대안전센터,N,Y,1985,1,3,100,진주소방서,055-760-9296,2019-04-30
2-053,02,경상남도,진주시,48170,경상남도 진주시 진양호로 385번길 5,,35.186869,128.0693931,에이플러스빌라 맞은편,평거안전센터,N,Y,1997,1,3,100,진주소방서,055-760-9296,2019-04-30
3-002,02,경상남도,진주시,48170,경상남도 진주시 강남로 301번길 13-1,,35.1866661,128.084946,한주아파트 옆 강뚝방향 10m지점 앞,천전안전센터,N,Y,1992,1,3,100,진주소방서,055-760-9296,2019-04-30
2-091,01,경상남도,진주시,48170,경상남도 진주시 서장대로 178번길 18,,35.1871018,128.0585769,고려맨션 입구 옆,평거안전센터,Y,Y,1996,1,3,100,진주소방서,055-760-9296,2019-04-30
5-040,01,경상남도,진주시,48170,경상남도 진주시 상대로143번길 20,,35.1864428,128.127732,녹수탕 앞,상대안전센터,Y,Y,2017,1,3,100,진주소방서,055-760-9296,2019-04-30
4-070,02,경상남도,진주시,48170,경상남도 진주시 대신로 289-1,,35.1863341,128.1167309,동부시장 입구 일성종합장식 앞,상대안전센터,N,Y,1976,1,3,100,진주소방서,055-760-9296,2019-04-30
2-016,01,경상남도,진주시,48170,경상남도 진주시 숙호산로 84,,35.186614,128.0642123,제일약국 앞,평거안전센터,N,Y,2010,1,3,100,진주소방서,055-760-9296,2019-04-30
2-051,02,경상남도,진주시,48170,경상남도 진주시 신안로 88번길 9-4,,35.18629383,128.0716648,한국SGI 앞,평거안전센터,N,Y,1997,1,3,100,진주소방서,055-760-9296,2019-04-30
4-091,02,경상남도,진주시,48170,경상남도 진주시 도동로178번길 14-2,,35.186129,128.1235636,깔끄미하우스 앞,상대안전센터,N,Y,1985,1,3,100,진주소방서,055-760-9296,2019-04-30
5-071,02,경상남도,진주시,48170,경상남도 진주시 모덕로 147번길 8-9,,35.1862152,128.1127943,향원식당 앞(돌담 아래),상대안전센터,N,Y,1979,1,3,100,진주소방서,055-760-9296,2019-04-30
"반성29호",01,경상남도,진주시,48170,경상남도 진주시 사봉면 공치고개길 228번길 1,,35.186374,128.296146,저동마을 입구,문산안전센터,N,Y,2012,1,3,100,진주소방서,055-760-9296,2019-04-30
3-031,02,경상남도,진주시,48170,경상남도 진주시 진주대로 966번길 12-1,,35.186346,128.088845,산오리식당 구-강진탕,천전안전센터,N,Y,2003,1,3,100,진주소방서,055-760-9296,2019-04-30
2-025,02,경상남도,진주시,48170,경상남도 진주시 평거로 211,,35.1861893,128.064585,일반주택 앞,평거안전센터,N,Y,2004,1,3,100,진주소방서,055-760-9296,2019-04-30
2-049,01,경상남도,진주시,48170,경상남도 진주시 천수로 298번길 10,,35.18600187,128.0732858,대화리네르빌 앞,평거안전센터,N,Y,2017,1,3,100,진주소방서,055-760-9296,2019-04-30
2-018,02,경상남도,진주시,48170,경상남도 진주시 숙호산로 64-5,,35.18654141,128.0619761,무지개아파트 앞,평거안전센터,N,Y,1997,1,3,100,진주소방서,055-760-9296,2019-04-30
2-058,01,경상남도,진주시,48170,경상남도 진주시 신안로 88,,35.1860308,128.0707388,얼큰한밥상 앞,평거안전센터,N,Y,1997,1,3,100,진주소방서,055-760-9296,2019-04-30
3-024,01,경상남도,진주시,48170,경상남도 진주시 진주대로965,,35.186152,128.087281,청혼 웨딩홀 앞,천전안전센터,N,Y,1985,1,3,100,진주소방서,055-760-9296,2019-04-30
4-064,02,경상남도,진주시,48170,경상남도 진주시 도동로 172번길 1,,35.186121,128.122972,상대아파트 북편 디지털엘지 골목길 건너 인도상,상대안전센터,N,Y,1979,1,3,100,진주소방서,055-760-9296,2019-04-30
4-009,01,경상남도,진주시,48170,경상남도 진주시 선학산길29번길 15,,35.1858639,128.109596,우성아트빌 10m지점,상대안전센터,N,Y,1981,1,3,100,진주소방서,055-760-9296,2019-04-30
2-017,02,경상남도,진주시,48170,경상남도 진주시 석갑로 177번길 6,,35.1861563,128.063777,덕산빌라 앞,평거안전센터,N,Y,1997,1,3,100,진주소방서,055-760-9296,2019-04-30
"남가람2호",01,경상남도,진주시,48170,경상남도 진주시 금산면 전원마을길 22,,35.1859658,128.1555583,남가람전원마을,문산안전센터,N,Y,2016,1,3,100,진주소방서,055-760-9296,2019-04-30
"남가람3호",01,경상남도,진주시,48170,경상남도 진주시 금산면 전원마을길 36,,35.185985,128.154604,남가람전원마을,문산안전센터,N,Y,2016,1,3,100,진주소방서,055-760-9296,2019-04-30
3-062,02,경상남도,진주시,48170,경상남도 진주시 진주대로 954번길19,,35.185851,128.089984,천전초등 정문 50m지점(현대문구앞),천전안전센터,N,Y,2003,1,3,100,진주소방서,055-760-9296,2019-04-30
2-024,01,경상남도,진주시,48170,경상남도 진주시 석갑로 168번길 9-1,,35.1850992,128.0648758,여중문구 앞,평거안전센터,Y,Y,2015,1,3,100,진주소방서,055-760-9296,2019-04-30
3-003,02,경상남도,진주시,48170,경상남도 진주시 망경북길 42-1,,35.185769,128.083356,해운탕여관 동편 대성슈퍼 앞),천전안전센터,N,Y,1992,1,3,100,진주소방서,055-760-9296,2019-04-30
3-032,01,경상남도,진주시,48170,경상남도 진주시 강남로 201번길1,,35.185735,128.093606,문화예술회관 주차장내,천전안전센터,N,Y,2000,1,3,100,진주소방서,055-760-9296,2019-04-30
2-038,01,경상남도,진주시,48170,경상남도 진주시 진양호로 370,,35.1852364,128.0695655,복음병원 옆,평거안전센터,N,Y,1997,1,3,100,진주소방서,055-760-9296,2019-04-30
2-019,02,경상남도,진주시,48170,경상남도 진주시 석갑로 173번길 7,,35.1855888,128.0630128,진주은혜교회 앞,평거안전센터,N,Y,1997,1,3,100,진주소방서,055-760-9296,2019-04-30
5-091,01,경상남도,진주시,48170,경상남도 진주시 상대로 35번길 16,,35.185705,128.115757,동부식당과 호동식당 사이 아구촌식당 앞,상대안전센터,N,Y,1974,1,3,100,진주소방서,055-760-9296,2019-04-30
4-085,02,경상남도,진주시,48170,경상남도 진주시 도동천로 184번길 18,,35.1853479,128.119505,공단시장 서편 만물상회 앞,상대안전센터,N,Y,1985,1,3,100,진주소방서,055-760-9296,2019-04-30
2-020,02,경상남도,진주시,48170,경상남도 진주시 석갑로 173-1,,35.18569381,128.0640729,화신세탁소 옆,평거안전센터,N,Y,1997,1,3,100,진주소방서,055-760-9296,2019-04-30
3-027,01,경상남도,진주시,48170,경상남도 진주시 강남로 201번길 11,,35.185476,128.092494,문화예술회관 인근 길모퉁이편의점 앞,천전안전센터,Y,Y,2017,1,3,100,진주소방서,055-760-9296,2019-04-30
5-065,01,경상남도,진주시,48170,경상남도 진주시 상대로 97,,35.18473139,128.1227508,상대주공아파트 3동 앞 보도상,상대안전센터,N,Y,1997,1,3,100,진주소방서,055-760-9296,2019-04-30
"남가람4호",01,경상남도,진주시,48170,경상남도 진주시 금산면 전원마을길 42,,35.18537923,128.154347,남가람전원마을,문산안전센터,N,Y,2016,1,3,100,진주소방서,055-760-9296,2019-04-30
4-068,01,경상남도,진주시,48170,경상남도 진주시 대신로 275,,35.1851198,128.116891,삼겹파티 앞,상대안전센터,Y,Y,2017,1,3,100,진주소방서,055-760-9296,2019-04-30
"진성5호",01,경상남도,진주시,48170,경상남도 진주시 진성면 동부로 1329,,35.1852835,128.223571,진성면사무소,문산안전센터,Y,Y,2017,1,3,100,진주소방서,055-760-9296,2019-04-30
5-064,01,경상남도,진주시,48170,경상남도 진주시 상대로143번길 4,,35.1849671,128.127846,하대주공 110동 앞,상대안전센터,N,Y,1997,1,3,100,진주소방서,055-760-9296,2019-04-30
"사봉15호",01,경상남도,진주시,48170,경상남도 진주시 사봉면 산업단지로44번길 51-11,,35.18538575,128.2734263,신화정공,문산안전센터,Y,Y,2012,1,3,100,진주소방서,055-760-9296,2019-04-30
3-004,02,경상남도,진주시,48170,경상남도 진주시 망경북길 26,,35.185266,128.081731,카페얀 앞,천전안전센터,N,Y,1992,1,3,100,진주소방서,055-760-9296,2019-04-30
3-007,01,경상남도,진주시,48170,경상남도 진주시 망경로 294,,35.185231,128.085336,망경동 육거리 부부약국 앞,천전안전센터,Y,Y,1984,1,3,100,진주소방서,055-760-9296,2019-04-30
"사봉14호",01,경상남도,진주시,48170,경상남도 진주시 사봉면 산업단지로44번길 51-21,,35.18441087,128.2749393,동일단조,문산안전센터,Y,Y,2012,1,3,100,진주소방서,055-760-9296,2019-04-30
"남가람1호",01,경상남도,진주시,48170,경상남도 진주시 금산면 전원마을길 12,,35.185088,128.155852,남가람전원마을,문산안전센터,N,Y,2016,1,3,100,진주소방서,055-760-9296,2019-04-30
2-048,01,경상남도,진주시,48170,경상남도 진주시 천수로 310,,35.185042,128.0723082,행복나무 공인중개사 사무소,평거안전센터,Y,Y,2019,1,3,100,진주소방서,055-760-9296,2019-04-30
2-081,02,경상남도,진주시,48170,경상남도 진주시 석갑로 168번길 9-1,,35.185029,128.064874,일반주택 앞,평거안전센터,N,Y,1994,1,3,100,진주소방서,055-760-9296,2019-04-30
4-061,01,경상남도,진주시,48170,경상남도 진주시 도동로 163,,35.1847142,128.122276,상대주유소 앞,상대안전센터,N,Y,1979,1,3,100,진주소방서,055-760-9296,2019-04-30
4-060,02,경상남도,진주시,48170,경상남도 진주시 상대로69번길 1,,35.1846365,128.1196755,공단시장 진입도로 진주카오디오 백화점 앞,상대안전센터,N,Y,1979,1,3,100,진주소방서,055-760-9296,2019-04-30
"남가람5호",01,경상남도,진주시,48170,경상남도 진주시 금산면 전원마을길 48,,35.18475068,128.154809,남가람전원마을,문산안전센터,N,Y,2016,1,3,100,진주소방서,055-760-9296,2019-04-30
"사봉19호",01,경상남도,진주시,48170,경상남도 진주시 사봉면 산업단지로27번길 33,,35.19322551,128.2752702,디엠아이,문산안전센터,Y,Y,2012,1,3,100,진주소방서,055-760-9296,2019-04-30
3-075,02,경상남도,진주시,48170,경상남도 진주시 진주대로953번길 10,,35.184924,128.087089,네네치킨 옆 가방집 앞,천전안전센터,N,Y,1985,1,3,100,진주소방서,055-760-9296,2019-04-30
3-026,01,경상남도,진주시,48170,경상남도 진주시 진주대로 942번길 22-1,,35.184836,128.090732,석봉한정식 건너편,천전안전센터,N,Y,2017,1,3,100,진주소방서,055-760-9296,2019-04-30
3-042,01,경상남도,진주시,48170,경상남도 진주시 강남로 359,,35.184777,128.079417,강변도로 금호타이어옆(천수영양탕 앞),천전안전센터,N,Y,1984,1,3,100,진주소방서,055-760-9296,2019-04-30
5-090,01,경상남도,진주시,48170,경상남도 진주시 상대로 35번길 22,,35.18619386,128.1158632,동부시장 농협마트 건너편 초원노래방 옆,상대안전센터,Y,Y,1979,1,3,100,진주소방서,055-760-9296,2019-04-30
2-127,01,경상남도,진주시,48170,경상남도 진주시 옥수로 471번길,,35.184718,127.922083,창촌마을정류소 옆,평거안전센터,N,Y,2012,1,3,100,진주소방서,055-760-9296,2019-04-30
3-035,01,경상남도,진주시,48170,경상남도 진주시 강남로 189번길 12,,35.184666,128.093221,한전사원아파트 서쪽사거리(신세계미용실앞),천전안전센터,N,Y,2017,1,3,100,진주소방서,055-760-9296,2019-04-30
5-066,01,경상남도,진주시,48170,경상남도 진주시 모덕로 137번길 4,,35.1843347,128.112011,아주미용실 앞,상대안전센터,N,Y,1997,1,3,100,진주소방서,055-760-9296,2019-04-30
2-067,01,경상남도,진주시,48170,경상남도 진주시 평거로 156번길 21,,35.184565,128.0693815,일반주택 앞,평거안전센터,N,Y,1993,1,3,100,진주소방서,055-760-9296,2019-04-30
3-076,01,경상남도,진주시,48170,경상남도 진주시 강남로 189번길 20-1,,35.184533,128.092302,신화빌 건너편 주택 앞,천전안전센터,Y,Y,1999,1,3,100,진주소방서,055-760-9296,2019-04-30
3-005,01,경상남도,진주시,48170,경상남도 진주시 망경로 270,,35.18445174,128.0829922,대양주유소 앞,천전안전센터,Y,Y,1984,1,3,100,진주소방서,055-760-9296,2019-04-30
3-034,01,경상남도,진주시,48170,경상남도 진주시 강남로 189번길 28-3,,35.184491,128.091631,천전초등남편 100m 진주방염 앞,천전안전센터,Y,Y,1991,1,3,100,진주소방서,055-760-9296,2019-04-30
3-008,01,경상남도,진주시,48170,경상남도 진주시 망경남길66번길 29,,35.1843968,128.085595,삼호맨션앞북편 (풍년떡방앗간 앞),천전안전센터,Y,Y,1992,1,3,100,진주소방서,055-760-9296,2019-04-30
"사봉13호",01,경상남도,진주시,48170,경상남도 진주시 사봉면 산업단지로44번길 41-39,,35.18478366,128.2758277,19단지,문산안전센터,Y,Y,2012,1,3,100,진주소방서,055-760-9296,2019-04-30
5-089,01,경상남도,진주시,48170,경상남도 진주시 상대로 24,,35.1840653,128.114744,KT사거리에서 유일식당 방면 참숯불갈비옆,상대안전센터,N,Y,1976,1,3,100,진주소방서,055-760-9296,2019-04-30
"문산혁신62호",01,경상남도,진주시,48170,경상남도 진주시 대밭골로39번길 7-56,,35.18445536,128.1460605,갈전천,문산안전센터,Y,Y,2016,1,3,100,진주소방서,055-760-9296,2019-04-30
3-043,01,경상남도,진주시,48170,경상남도 진주시 강남로 179,,35.184175,128.094752,강변도로 강변장여관앞 인도,천전안전센터,N,Y,1984,1,3,100,진주소방서,055-760-9296,2019-04-30
3-025,01,경상남도,진주시,48170,경상남도 진주시 진주대로 942,,35.184151,128.088741,칠암동 역전파출소앞 인도상,천전안전센터,N,Y,1991,1,3,100,진주소방서,055-760-9296,2019-04-30
2-022,01,경상남도,진주시,48170,경상남도 진주시 석갑로 155번길 5,,35.184091,128.063252,일반주택 앞,평거안전센터,Y,Y,2012,1,3,100,진주소방서,055-760-9296,2019-04-30
3-036,01,경상남도,진주시,48170,경상남도 진주시 진주대로 930번길 11-14,,35.184086,128.090589,대덕아파트 동남편 25m지점(새롬학원앞,천전안전센터,N,Y,1992,1,3,100,진주소방서,055-760-9296,2019-04-30
3-040,01,경상남도,진주시,48170,경상남도 진주시 강남로 189번길 27-13,,35.184063,128.092642,칠암어린이집 북쪽도로상)(칠암동사무소에서 동편 50m지점),천전안전센터,Y,Y,2004,1,3,100,진주소방서,055-760-9296,2019-04-30
2-014,01,경상남도,진주시,48170,경상남도 진주시 천수로 315,,35.1847886,128.0722818,신안현대아파트 옆,평거안전센터,Y,Y,2016,1,3,100,진주소방서,055-760-9296,2019-04-30
2-026,01,경상남도,진주시,48170,경상남도 진주시 석갑로 156번길 7,,35.18381971,128.064413,상림빌라 앞,평거안전센터,Y,Y,1997,1,3,100,진주소방서,055-760-9296,2019-04-30
5-061,01,경상남도,진주시,48170,경상남도 진주시 대신로 265,,35.1836872,128.116084,남강전화국앞 인도,상대안전센터,N,Y,1994,1,3,100,진주소방서,055-760-9296,2019-04-30
3-037,01,경상남도,진주시,48170,경상남도 진주시 진주대로 942번길 12-7,,35.183951,128.089826,칠암교회통로 서편 대덕아파트일반지하주차장앞,천전안전센터,N,Y,1991,1,3,100,진주소방서,055-760-9296,2019-04-30
4-001,01,경상남도,진주시,48170,경상남도 진주시 남강로 881-9,,35.183883,128.109221,법원뒷편,상대안전센터,N,Y,1979,1,3,100,진주소방서,055-760-9296,2019-04-30
3-044,02,경상남도,진주시,48170,경상남도 진주시 강남로177번길 8,,35.183862,128.094376,강변사우나 서편 골목 강변미용실 앞,천전안전센터,N,Y,1992,1,3,100,진주소방서,055-760-9296,2019-04-30
2-002,02,경상남도,진주시,48170,경상남도 진주시 남강로 513,,35.183854,128.0744229,동성모터스 옆,평거안전센터,N,Y,1997,1,3,100,진주소방서,055-760-9296,2019-04-30
"반성22호",01,경상남도,진주시,48170,경상남도 진주시 일반성면 공치고개길 198,,35.1833972,128.296701,대림산업 인근,문산안전센터,N,Y,2012,1,3,100,진주소방서,055-760-9296,2019-04-30
3-045,02,경상남도,진주시,48170,경상남도 진주시 강남로 177번길 18-1,,35.183577,128.093242,흥한칠암카누빌 정문우측,천전안전센터,N,Y,2004,1,3,100,진주소방서,055-760-9296,2019-04-30
3-009,01,경상남도,진주시,48170,경상남도 진주시 망경남길66번길 1,,35.183471,128.082768,망경국민주택입구 바다약국앞),천전안전센터,Y,Y,2017,1,3,100,진주소방서,055-760-9296,2019-04-30
2-066,01,경상남도,진주시,48170,경상남도 진주시 진양호로 348,,35.183441,128.0682145,할리스커피 진주교대점 뒤편,평거안전센터,N,Y,1993,1,3,100,진주소방서,055-760-9296,2019-04-30
4-062,02,경상남도,진주시,48170,경상남도 진주시 상대로120번길 14,,35.183413,128.1245598,성원산업 옆 도로상,상대안전센터,N,Y,2017,1,3,100,진주소방서,055-760-9296,2019-04-30
4-017,02,경상남도,진주시,48170,경상남도 진주시 돗골로 168,,35.1830562,128.112232,상대1동사무소앞 도로상,상대안전센터,N,Y,1979,1,3,100,진주소방서,055-760-9296,2019-04-30
2-046,02,경상남도,진주시,48170,경상남도 진주시 남강로 503번길 9,,35.18319502,128.0731039,더샵 앞,평거안전센터,N,Y,2013,1,3,100,진주소방서,055-760-9296,2019-04-30
"문산혁신60호",01,경상남도,진주시,48170,경상남도 진주시 사들로 157,,35.18198351,128.1478261,LH1단지아파트 107동,문산안전센터,Y,Y,2016,1,3,100,진주소방서,055-760-9296,2019-04-30
3-052,01,경상남도,진주시,48170,경상남도 진주시 강남로 169,,35.183231,128.0954657,영진면옥 식당,천전안전센터,Y,Y,1991,1,3,100,진주소방서,055-760-9296,2019-04-30
2-068,02,경상남도,진주시,48170,경상남도 진주시 평거로 156번길 5,,35.183213,128.0696736,해찬솔 앞,평거안전센터,N,Y,1993,1,3,100,진주소방서,055-760-9296,2019-04-30
3-038,01,경상남도,진주시,48170,경상남도 진주시 진주대로 930번길 8-2,,35.183206,128.089618,성중장여관 북편 10m지점(원룸옆 도로상),천전안전센터,Y,Y,1992,1,3,100,진주소방서,055-760-9296,2019-04-30
3-023,01,경상남도,진주시,48170,경상남도 진주시 진주대로931,,35.183188,128.088723,"한국생명,동부농협지소옆 도로상",천전안전센터,N,Y,1985,1,3,100,진주소방서,055-760-9296,2019-04-30
4-058,02,경상남도,진주시,48170,경상남도 진주시 남강로1367번길 14,,35.1829751,128.1277004,특종제지 정문 앞,상대안전센터,N,Y,1979,1,3,100,진주소방서,055-760-9296,2019-04-30
2-073,02,경상남도,진주시,48170,경상남도 진주시 석갑로 156번길 18,,35.18295846,128.0639582,백합빌라 앞,평거안전센터,N,Y,1994,1,3,100,진주소방서,055-760-9296,2019-04-30
3-047,01,경상남도,진주시,48170,경상남도 진주시 진주대로 920번길 19,,35.183049,128.091371,한스마트 앞,천전안전센터,N,Y,2004,1,3,100,진주소방서,055-760-9296,2019-04-30
2-039,01,경상남도,진주시,48170,경상남도 진주시 신안로 54,,35.183042,128.0713806,영남스타맨션 옆 육교 앞,평거안전센터,Y,Y,2001,1,3,100,진주소방서,055-760-9296,2019-04-30
3-046,01,경상남도,진주시,48170,경상남도 진주시 강남로 177번길 29,,35.183011,128.092098,칠암어린이집 정문남쪽 모퉁이,천전안전센터,Y,Y,2004,1,3,100,진주소방서,055-760-9296,2019-04-30
4-057,01,경상남도,진주시,48170,경상남도 진주시 도동로135번길 6,,35.182745,128.121771,한전변전소 남동편모서리(삼성정비건너),상대안전센터,Y,Y,1979,1,3,100,진주소방서,055-760-9296,2019-04-30
"문산혁신56호",01,경상남도,진주시,48170,경상남도 진주시 대밭로 71,,35.1829367,128.1516867,진주팥죽,문산안전센터,Y,Y,2016,1,3,100,진주소방서,055-760-9296,2019-04-30
"문산혁신40호",01,경상남도,진주시,48170,경상남도 진주시 사들로 131,,35.17972319,128.1478119,한국시설안전공단,문산안전센터,N,Y,2016,1,3,100,진주소방서,055-760-9296,2019-04-30
"문산혁신59호",01,경상남도,진주시,48170,경상남도 진주시 사들로 173,,35.18320474,128.1490617,갈전초등학교,문산안전센터,N,Y,2016,1,3,100,진주소방서,055-760-9296,2019-04-30
2-047,02,경상남도,진주시,48170,경상남도 진주시 남강로 503,,35.182872,128.073906,파르페 앞,평거안전센터,N,Y,2013,1,3,100,진주소방서,055-760-9296,2019-04-30
3-107,01,경상남도,진주시,48170,경상남도 진주시 강남로167번길16,,35.182887,128.0941076,천전119안전센터 뒤쪽,천전안전센터,N,Y,2007,1,3,100,진주소방서,055-760-9296,2019-04-30
"반성37호",01,경상남도,진주시,48170,경상남도 진주시 동부로 1751번길,,35.182877,128.259941,중항마을회관,문산안전센터,Y,Y,2016,1,3,100,진주소방서,055-760-9296,2019-04-30
3-108,03,경상남도,진주시,48170,경상남도 진주시 강남로 167번길 16,,35.182845,128.094121,천전119안전센터 차고내,천전안전센터,N,Y,2007,1,3,100,진주소방서,055-760-9296,2019-04-30
3-051,01,경상남도,진주시,48170,경상남도 진주시 강남로167번길 16,,35.182839,128.094108,천전119안전센터 우측면,천전안전센터,N,Y,2007,1,3,100,진주소방서,055-760-9296,2019-04-30
5-054,02,경상남도,진주시,48170,경상남도 진주시 모덕로 108번길 2,,35.1825785,128.109289,남강초교 맞은편 대호문구 앞,상대안전센터,N,Y,1994,1,3,100,진주소방서,055-760-9296,2019-04-30
5-072,02,경상남도,진주시,48170,경상남도 진주시 남강로1367번길 36,,35.1825798,128.125564,부성특수제지 정문 앞,상대안전센터,N,Y,1997,1,3,100,진주소방서,055-760-9296,2019-04-30
3-072,01,경상남도,진주시,48170,경상남도 진주시 망경남길 44번길 15,,35.182724,128.085082,주택모서리,천전안전센터,Y,Y,1991,1,3,100,진주소방서,055-760-9296,2019-04-30
4-067,01,경상남도,진주시,48170,경상남도 진주시 대신로 247,,35.1824405,128.1170876,LS산전 앞 인도상,상대안전센터,N,Y,1979,1,3,100,진주소방서,055-760-9296,2019-04-30
4-059,02,경상남도,진주시,48170,경상남도 진주시 대신로 244번길 19,,35.18246088,128.1195535,상평자원 고물상 앞,상대안전센터,N,Y,1979,1,3,100,진주소방서,055-760-9296,2019-04-30
2-021,01,경상남도,진주시,48170,경상남도 진주시 석갑로 140,,35.182598,128.0634616,펭귄fresh마트 앞,평거안전센터,Y,Y,2017,1,3,100,진주소방서,055-760-9296,2019-04-30
3-050,01,경상남도,진주시,48170,경상남도 진주시 강남로167번길 24,,35.182575,128.093256,칠암고시원 앞,천전안전센터,Y,Y,1984,1,3,100,진주소방서,055-760-9296,2019-04-30
2-023,01,경상남도,진주시,48170,경상남도 진주시 석갑로 132,,35.18195893,128.0632382,국제아파트 앞,평거안전센터,Y,Y,1997,1,3,100,진주소방서,055-760-9296,2019-04-30
3-006,01,경상남도,진주시,48170,경상남도 진주시 망경로 226,,35.182474,128.078874,명진건설 앞,천전안전센터,N,Y,1984,1,3,100,진주소방서,055-760-9296,2019-04-30
3-048,01,경상남도,진주시,48170,경상남도 진주시 진주대로 920번길 10,,35.182417,128.090417,광명곱창,천전안전센터,N,Y,2004,1,3,100,진주소방서,055-760-9296,2019-04-30
3-053,01,경상남도,진주시,48170,경상남도 진주시 강남로151번길 13,,35.182375,128.095651,리버빌 앞,천전안전센터,Y,Y,1997,1,3,100,진주소방서,055-760-9296,2019-04-30
5-093,01,경상남도,진주시,48170,경상남도 진주시 모덕로 108번길 8-1,,35.1821241,128.109338,자유시장북편 꾸러기문구 20m앞,상대안전센터,N,Y,1973,1,3,100,진주소방서,055-760-9296,2019-04-30
4-066,01,경상남도,진주시,48170,경상남도 진주시 대신로 244번길 10,,35.1820508,128.118201,남도건설중기 부근 (주)재성함석집 옆,상대안전센터,N,Y,2007,1,3,100,진주소방서,055-760-9296,2019-04-30
5-049,01,경상남도,진주시,48170,경상남도 진주시 솔밭로 144,,35.1820514,128.106931,목민독서실 북편 소담 식육식당 앞,상대안전센터,N,Y,1994,1,3,100,진주소방서,055-760-9296,2019-04-30
2-151,01,경상남도,진주시,48170,경상남도 진주시 진양호로 313번길 17,,35.1823995,128.0656152,법조타운빌딩 옆,평거안전센터,Y,Y,2013,1,3,100,진주소방서,055-760-9296,2019-04-30
5-070,01,경상남도,진주시,48170,경상남도 진주시 모덕로65번길 3,,35.1820081,128.104959,송학사 옆 상대꽃집앞,상대안전센터,N,Y,1997,1,3,100,진주소방서,055-760-9296,2019-04-30
4-016,02,경상남도,진주시,48170,경상남도 진주시 돗골로 153번길 6,,35.1819851,128.111524,"삼양꽃집, 태극갈비 앞",상대안전센터,N,Y,1983,1,3,100,진주소방서,055-760-9296,2019-04-30
5-094,01,경상남도,진주시,48170,경상남도 진주시 돗골로 153번길 24,,35.18188172,128.109656,자유시장북편 시장스토어 앞,상대안전센터,N,Y,1983,1,3,100,진주소방서,055-760-9296,2019-04-30
2-037,01,경상남도,진주시,48170,경상남도 진주시 진양호로 341,,35.183285,128.0675139,심설로 앞,평거안전센터,N,Y,1997,1,3,100,진주소방서,055-760-9296,2019-04-30
2-040,01,경상남도,진주시,48170,경상남도 진주시 신안로 46,,35.1822812,128.0712608,지호한반삼계탕찜닭오리 앞,평거안전센터,N,Y,2001,1,3,100,진주소방서,055-760-9296,2019-04-30
2-045,01,경상남도,진주시,48170,경상남도 진주시 남강로 491번길 9,,35.1820346,128.0726452,강변복집 앞,평거안전센터,N,Y,2016,1,3,100,진주소방서,055-760-9296,2019-04-30
2-078,01,경상남도,진주시,48170,경상남도 진주시 진양호로 326,,35.1819385,128.067045,파리바게뜨 진주신안점 앞,평거안전센터,Y,Y,1994,1,3,100,진주소방서,055-760-9296,2019-04-30
3-049,01,경상남도,진주시,48170,경상남도 진주시 진주대로908번길 17,,35.182089,128.091814,세무서 옆 한일식당 앞,천전안전센터,Y,Y,1984,1,3,100,진주소방서,055-760-9296,2019-04-30
3-010,02,경상남도,진주시,48170,경상남도 진주시 망경남길 49,,35.182082,128.083547,삼성마트앞 삼거리(산청 흑돼지 식당앞),천전안전센터,N,Y,1992,1,3,100,진주소방서,055-760-9296,2019-04-30
"문산혁신63호",01,경상남도,진주시,48170,경상남도 진주시 사들로 157,,35.18198351,128.1478261,LH1단지아파트 105동,문산안전센터,Y,Y,2016,1,3,100,진주소방서,055-760-9296,2019-04-30
4-007,01,경상남도,진주시,48170,경상남도 진주시 솔밭로 141,,35.1817416,128.106656,모란아파트 뒤 부동산앞,상대안전센터,Y,Y,1979,1,3,100,진주소방서,055-760-9296,2019-04-30
4-063,02,경상남도,진주시,48170,경상남도 진주시 동진로311번길 14,,35.1815798,128.1258635,삼경기업 밑 전주대 옆 도로상,상대안전센터,N,Y,2017,1,3,100,진주소방서,055-760-9296,2019-04-30
2-080,02,경상남도,진주시,48170,경상남도 진주시 평거로 126번길 17-1,,35.1817341,128.0699501,나르샤헤어두피관리센터 앞,평거안전센터,N,Y,1994,1,3,100,진주소방서,055-760-9296,2019-04-30
4-015,01,경상남도,진주시,48170,경상남도 진주시 도동천로 117,,35.1815625,128.1122894,자유시장인근 동부농협 동명지점 앞,상대안전센터,Y,Y,1979,1,3,100,진주소방서,055-760-9296,2019-04-30
2-126,01,경상남도,진주시,48170,경상남도 진주시 옥수로 437-1,,35.18186627,127.9204777,일반주택 앞,평거안전센터,N,Y,2012,1,3,100,진주소방서,055-760-9296,2019-04-30
2-044,02,경상남도,진주시,48170,경상남도 진주시 남강로 489,,35.181732,128.0732232,로얄앤코 옆,평거안전센터,N,Y,1997,1,3,100,진주소방서,055-760-9296,2019-04-30
2-099,01,경상남도,진주시,48170,경상남도 진주시 진양호로 321,,35.181725,128.0663553,도배나라 앞,평거안전센터,N,Y,1998,1,3,100,진주소방서,055-760-9296,2019-04-30
3-054,01,경상남도,진주시,48170,경상남도 진주시 강남로 149,,35.1816998,128.096313,영진상사 앞,천전안전센터,N,Y,1985,1,3,100,진주소방서,055-760-9296,2019-04-30
2-150,01,경상남도,진주시,48170,경상남도 진주시 진양호로 313번길 9,,35.18187799,128.0650639,새더라움오피스텔 앞,평거안전센터,N,Y,2013,1,3,100,진주소방서,055-760-9296,2019-04-30
2-079,02,경상남도,진주시,48170,경상남도 진주시 평거로 115번길 25,,35.181671,128.068821,한들어린이집 앞,평거안전센터,N,Y,1994,1,3,100,진주소방서,055-760-9296,2019-04-30
"공설18호",04,경상남도,진주시,48170,경상남도 진주시 진주대로903번길 14,,35.181618,128.088881,국제주유소 뒤 이디야커피 옆 도로상,천전안전센터,N,Y,1997,1,3,100,진주소방서,055-760-9296,2019-04-30
3-011,02,경상남도,진주시,48170,경상남도 진주시 봉수대길 9,,35.181537,128.082329,망경동 경노당앞 삼거리(모아빌라앞),천전안전센터,N,Y,1992,1,3,100,진주소방서,055-760-9296,2019-04-30
5-060,01,경상남도,진주시,48170,경상남도 진주시 모덕로 48-4,,35.1812262,128.103244,새진주 맨션 앞,상대안전센터,N,Y,1992,1,3,100,진주소방서,055-760-9296,2019-04-30
4-052,01,경상남도,진주시,48170,경상남도 진주시 동진로 329,,35.1812239,128.127384,한국마그넷 동편 50m,상대안전센터,N,Y,1979,1,3,100,진주소방서,055-760-9296,2019-04-30
2-043,01,경상남도,진주시,48170,경상남도 진주시 신안로 34,,35.18115785,128.0715007,99카오디오 앞,평거안전센터,Y,Y,2010,1,3,100,진주소방서,055-760-9296,2019-04-30
3-022,01,경상남도,진주시,48170,경상남도 진주시 진주대로907,,35.181265,128.089708,"강남주유소앞 구,서흥유류",천전안전센터,N,Y,1985,1,3,100,진주소방서,055-760-9296,2019-04-30
4-012,01,경상남도,진주시,48170,경상남도 진주시 동진로167번길 15-2,,35.1809657,128.1093626,자유시장북편 사거리 시장회스토어 앞,상대안전센터,Y,Y,1973,1,3,100,진주소방서,055-760-9296,2019-04-30
4-054,01,경상남도,진주시,48170,경상남도 진주시 동진로 279,,35.1808639,128.122415,한국전력 진주영업소 동편 모서리 인도,상대안전센터,N,Y,1995,1,3,100,진주소방서,055-760-9296,2019-04-30
5-063,01,경상남도,진주시,48170,경상남도 진주시 동진로 289,,35.18080246,128.1230612,삼성중기 옆(끌레모아 앞) 인도,상대안전센터,N,Y,1994,1,3,100,진주소방서,055-760-9296,2019-04-30
4-053,01,경상남도,진주시,48170,경상남도 진주시 동진로 309,,35.18080895,128.1250812,도남철강 앞 인도상,상대안전센터,N,Y,1979,1,3,100,진주소방서,055-760-9296,2019-04-30
"문산혁신50호",01,경상남도,진주시,48170,경상남도 진주시 대밭로 92,,35.1809006,128.1503509,라온프라이빗 201동,문산안전센터,N,Y,2016,1,3,100,진주소방서,055-760-9296,2019-04-30
"문산혁신51호",01,경상남도,진주시,48170,경상남도 진주시 대밭로 92,,35.1809006,128.1503509,라온프라이빗 202동,문산안전센터,N,Y,2016,1,3,100,진주소방서,055-760-9296,2019-04-30
"문산혁신52호",01,경상남도,진주시,48170,경상남도 진주시 대밭로 92,,35.1809006,128.1503509,라온프라이빗 206동,문산안전센터,N,Y,2016,1,3,100,진주소방서,055-760-9296,2019-04-30
4-055,01,경상남도,진주시,48170,경상남도 진주시 동진로 271,,35.1805735,128.120855,경남경찰청 제2기동중대 앞,상대안전센터,Y,Y,1981,1,3,100,진주소방서,055-760-9296,2019-04-30
5-050,01,경상남도,진주시,48170,경상남도 진주시 대신로 227,,35.1805735,128.117177,제비표페인트 앞,상대안전센터,N,Y,1994,1,3,100,진주소방서,055-760-9296,2019-04-30
5-096,01,경상남도,진주시,48170,경상남도 진주시 동진로 249,,35.1804868,128.1182794,진주소방서 상대센터 뒤,상대안전센터,N,Y,2015,1,3,100,진주소방서,055-760-9296,2019-04-30
4-056,01,경상남도,진주시,48170,경상남도 진주시 동진로 249,,35.1804868,128.118215,진주소방서 정문 앞,상대안전센터,N,Y,1979,1,3,100,진주소방서,055-760-9296,2019-04-30
"문산혁신65호",01,경상남도,진주시,48170,경상남도 진주시 동진로 408,,35.1804469,128.1357068,중앙관세분석소,문산안전센터,N,Y,2016,1,3,100,진주소방서,055-760-9296,2019-04-30
"공설20호",04,경상남도,진주시,48170,경상남도 진주시 동진로 249,,35.1804868,128.118291,진주소방서 후정 출입구,상대안전센터,N,Y,1979,1,3,100,진주소방서,055-760-9296,2019-04-30
"반성17호",01,경상남도,진주시,48170,경상남도 진주시 사봉면 동부로 1803길 7-6,,35.180718,128.264677,죽항마을 정자나무,문산안전센터,N,Y,2007,1,3,100,진주소방서,055-760-9296,2019-04-30
3-012,02,경상남도,진주시,48170,경상남도 진주시 천수로 219번지 33,,35.180708,128.080202,망경한보 내리막길과 월경사 내리막길 만나는 지점,천전안전센터,N,Y,1992,1,3,100,진주소방서,055-760-9296,2019-04-30
2-041,01,경상남도,진주시,48170,경상남도 진주시 남강로 475,,35.180696,128.0726676,동양빌딩 앞,평거안전센터,N,Y,2017,1,3,100,진주소방서,055-760-9296,2019-04-30
3-055,01,경상남도,진주시,48170,경상남도 진주시 강남로131번길 13-1,,35.180668,128.096148,미소빌 앞,천전안전센터,N,Y,1985,1,3,100,진주소방서,055-760-9296,2019-04-30
2-152,01,경상남도,진주시,48170,경상남도 진주시 진양호로 303,,35.1812374,128.0647154,창원지방법원진주지원 앞,평거안전센터,N,Y,2013,1,3,100,진주소방서,055-760-9296,2019-04-30
5-097,01,경상남도,진주시,48170,경상남도 진주시 동진로 249,,35.1804868,128.1182794,진주소방서 후정,상대안전센터,Y,Y,2015,1,3,100,진주소방서,055-760-9296,2019-04-30
4-014,01,경상남도,진주시,48170,경상남도 진주시 동진로 189,,35.1800675,128.1117900,상대동행정복지센터 앞,상대안전센터,N,Y,1973,1,3,100,진주소방서,055-760-9296,2019-04-30
2-178,01,경상남도,진주시,48170,경상남도 진주시 석갑로 91번길 111-13,,35.180554,128.061761,일반주택 앞,평거안전센터,Y,Y,2018,1,3,100,진주소방서,055-760-9296,2019-04-30
3-021,01,경상남도,진주시,48170,경상남도 진주시 진주대로 900,,35.180552,128.090651,진주남중학교앞,천전안전센터,Y,Y,1984,1,3,100,진주소방서,055-760-9296,2019-04-30
4-005,01,경상남도,진주시,48170,경상남도 진주시 동진로 155,,35.1802513,128.1089005,진주시청 남서편 인도상,상대안전센터,N,Y,1979,1,3,100,진주소방서,055-760-9296,2019-04-30
5-077,01,경상남도,진주시,48170,경상남도 진주시 동진로167번길 8,,35.1802965,128.1097437,자유시장주변 진주시청 후문 인도상,상대안전센터,N,Y,2007,1,3,100,진주소방서,055-760-9296,2019-04-30
"문산혁신67호",01,경상남도,진주시,48170,경상남도 진주시 동진로 430,,35.1803066,128.138475,중소기업진흥공단,문산안전센터,N,Y,2016,1,3,100,진주소방서,055-760-9296,2019-04-30
3-056,01,경상남도,진주시,48170,경상남도 진주시 강남로131번길 4-2,,35.180428,128.0967885,칠암동 타이어프로 앞,천전안전센터,N,Y,1985,1,3,100,진주소방서,055-760-9296,2019-04-30
4-036,01,경상남도,진주시,48170,경상남도 진주시 동진로 217,,35.1800771,128.1149861,디지털프라자 앞,상대안전센터,N,Y,1994,1,3,100,진주소방서,055-760-9296,2019-04-30
2-089,01,경상남도,진주시,48170,경상남도 진주시 진양호로 308,,35.18046807,128.0659149,신안평거2차 상가 앞,평거안전센터,N,Y,1996,1,3,100,진주소방서,055-760-9296,2019-04-30
"문산35호",01,경상남도,진주시,48170,경상남도 진주시 문산읍 월아산로 996번길 55,,35.16066717,128.1703152,학성실크 2공장,문산안전센터,N,Y,2012,1,3,100,진주소방서,055-760-9296,2019-04-30
5-046,01,경상남도,진주시,48170,경상남도 진주시 동진로 298,,35.1800412,128.1240122,학성실크 정문 앞 인도상,상대안전센터,N,Y,1994,1,3,100,진주소방서,055-760-9296,2019-04-30
4-018,01,경상남도,진주시,48170,경상남도 진주시 동진로 213,,35.1800226,128.114496,축협옆 상대동물병원 앞,상대안전센터,N,Y,1994,1,3,100,진주소방서,055-760-9296,2019-04-30
5-047,01,경상남도,진주시,48170,경상남도 진주시 동진로 324,,35.1799489,128.1260773,천보철강 정문 오른쪽 인도,상대안전센터,N,Y,1994,1,3,100,진주소방서,055-760-9296,2019-04-30
4-013,02,경상남도,진주시,48170,경상남도 진주시 동진로 171,,35.1798583,128.109818,자유시장 시장약국 앞,상대안전센터,N,Y,1979,1,3,100,진주소방서,055-760-9296,2019-04-30
5-098,01,경상남도,진주시,48170,경상남도 진주시 동진로 249,,35.1804868,128.1182794,진주소방서 앞 인도,상대안전센터,Y,Y,2015,1,3,100,진주소방서,055-760-9296,2019-04-30
5-099,01,경상남도,진주시,48170,경상남도 진주시 동진로 249,,35.1804868,128.1182794,진주소방서 청사 서편주차장 내,상대안전센터,Y,Y,1915,1,3,100,진주소방서,055-760-9296,2019-04-30
"문산혁신68호",01,경상남도,진주시,48170,경상남도 진주시 동지로 400,,35.180106,128.139144,롯데아울렛,문산안전센터,N,Y,2016,1,3,100,진주소방서,055-760-9296,2019-04-30
5-044,01,경상남도,진주시,48170,경상남도 진주시 동진로 262,,35.17976976,128.119739,상대 지구대 건너 인도상,상대안전센터,N,Y,1994,1,3,100,진주소방서,055-760-9296,2019-04-30
5-045,01,경상남도,진주시,48170,경상남도 진주시 동진로 280,,35.179703,128.121454,남강아트직물 정문 앞,상대안전센터,N,Y,1994,1,3,100,진주소방서,055-760-9296,2019-04-30
3-013,01,경상남도,진주시,48170,경상남도 진주시 망경남길 23,,35.180009,128.085011,망경동 동양마트 나들가게 앞,천전안전센터,Y,Y,2019,1,3,100,진주소방서,055-760-9296,2019-04-30
"문산혁신12호",01,경상남도,진주시,48170,경상남도 진주시 사들로 34번길,,35.1799817,128.1076213,남해고속도로 옆 택지,문산안전센터,Y,Y,2016,1,3,100,진주소방서,055-760-9296,2019-04-30
"문산혁신16호",01,경상남도,진주시,48170,경상남도 진주시 사들로 42번길 45,,35.17354263,128.1513649,한국토지주택공사 가람재,문산안전센터,Y,Y,2016,1,3,100,진주소방서,055-760-9296,2019-04-30
"문산혁신19호",01,경상남도,진주시,48170,경상남도 진주시 에나로 175번길,,35.1799817,128.1076213,중흥S클래스 C-4,문산안전센터,N,Y,2016,1,3,100,진주소방서,055-760-9296,2019-04-30
"문산혁신28호",01,경상남도,진주시,48170,경상남도 진주시 충의로99번길 7-5,,35.17622528,128.1543534,E-9블럭형 택지,문산안전센터,Y,Y,2016,1,3,100,진주소방서,055-760-9296,2019-04-30
"문산혁신29호",01,경상남도,진주시,48170,경상남도 진주시 충의로 99번길 26-3,,35.17484839,128.1562132,E-12블럭형 택지,문산안전센터,Y,Y,2016,1,3,100,진주소방서,055-760-9296,2019-04-30
"문산혁신31호",01,경상남도,진주시,48170,경상남도 진주시 충의로 89번길 27-4,,35.17780771,128.1547578,홍희통닭,문산안전센터,Y,Y,2016,1,3,100,진주소방서,055-760-9296,2019-04-30
"문산혁신32호",01,경상남도,진주시,48170,경상남도 진주시 충의로 70번길 3-7,,35.17771035,128.153246,LH 5단지 아파트,문산안전센터,N,Y,2016,1,3,100,진주소방서,055-760-9296,2019-04-30
"문산혁신44호",01,경상남도,진주시,48170,경상남도 진주시 에나로 128번길 17,,35.17652997,128.1438987,센터럴타워,문산안전센터,Y,Y,2016,1,3,100,진주소방서,055-760-9296,2019-04-30
"문산혁신45호",01,경상남도,진주시,48170,경상남도 진주시 에나로 146,,35.17667138,128.1445768,라온프라이빗시티,문산안전센터,N,Y,2016,1,3,100,진주소방서,055-760-9296,2019-04-30
"문산혁신47호",01,경상남도,진주시,48170,경상남도 진주시 사들로 123번길 32,,35.18034438,128.145792,한국남동발전,문산안전센터,N,Y,2016,1,3,100,진주소방서,055-760-9296,2019-04-30
"문산혁신48호",01,경상남도,진주시,48170,경상남도 진주시 사들로 123번길 32,,35.18034438,128.145792,한국남동발전,문산안전센터,N,Y,2016,1,3,100,진주소방서,055-760-9296,2019-04-30
"문산혁신49호",01,경상남도,진주시,48170,경상남도 진주시 사들로 157,,35.18198351,128.1478261,LH1단지아파트 104동,문산안전센터,Y,Y,2016,1,3,100,진주소방서,055-760-9296,2019-04-30
"문산혁신55호",01,경상남도,진주시,48170,경상남도 진주시 사들로156번길 29,,35.18204606,128.1522489,LH3단지아파트 309동 앞,문산안전센터,N,Y,2016,1,3,100,진주소방서,055-760-9296,2019-04-30
"문산혁신58호",01,경상남도,진주시,48170,경상남도 진주시 사들로 192,,35.1846189,128.1504848,공군교육사령부,문산안전센터,Y,Y,2016,1,3,100,진주소방서,055-760-9296,2019-04-30
2-149,01,경상남도,진주시,48170,경상남도 진주시 진양호로 293번길 16-2,,35.17988884,128.063392,진주법무빌딩 앞,평거안전센터,N,Y,2012,1,3,100,진주소방서,055-760-9296,2019-04-30
4-004,02,경상남도,진주시,48170,경상남도 진주시 동진로 133,,35.1796898,128.1057453,아우디미인촌옆 펫마트 앞 인도상,상대안전센터,N,Y,1979,1,3,100,진주소방서,055-760-9296,2019-04-30
3-067,02,경상남도,진주시,48170,경상남도 진주시 망진산길 23번길 32,,35.179917,128.081869,동신아파트 뒤편 헌옷수거함 옆,천전안전센터,N,Y,1992,1,3,100,진주소방서,055-760-9296,2019-04-30
4-003,02,경상남도,진주시,48170,경상남도 진주시 동진로 121,,35.1795918,128.104405,송학아파트 입구 가나신협앞 인도상,상대안전센터,N,Y,1979,1,3,100,진주소방서,055-760-9296,2019-04-30
5-014,01,경상남도,진주시,48170,경상남도 진주시 동진로 99,,35.179694,128.101865,법원 건너편 영선빌딩앞,상대안전센터,Y,Y,1990,1,3,100,진주소방서,055-760-9296,2019-04-30
2-072,01,경상남도,진주시,48170,경상남도 진주시 평거로 117,,35.1799488,128.0690636,파트너공인중개사사무소 앞,평거안전센터,N,Y,2015,1,3,100,진주소방서,055-760-9296,2019-04-30
"문산혁신64호",01,경상남도,진주시,48170,경상남도 진주시 충무공동 195-5,,35.179801,128.155901,동진로 4단지 앞 버스정류장 앞,문산안전센터,N,Y,2016,1,3,100,진주소방서,055-760-9296,2019-04-30
2-027,02,경상남도,진주시,48170,경상남도 진주시 석갑로 108,,35.17985368,128.062394,김주철건물 앞,평거안전센터,N,Y,1997,1,3,100,진주소방서,055-760-9296,2019-04-30
4-002,01,경상남도,진주시,48170,경상남도 진주시 동진로 105,,35.1794606,128.1028158,한보프라자 주차장 입구,상대안전센터,Y,Y,1979,1,3,100,진주소방서,055-760-9296,2019-04-30
2-069,01,경상남도,진주시,48170,경상남도 진주시 신안들말길 10번길 21,,35.179748,128.0703239,일반주택 앞,평거안전센터,Y,Y,1993,1,3,100,진주소방서,055-760-9296,2019-04-30
5-048,01,경상남도,진주시,48170,경상남도 진주시 남강로1317번길 10,,35.1792119,128.129179,금정산업 건물 뒤편 인도,상대안전센터,Y,Y,2017,1,3,100,진주소방서,055-760-9296,2019-04-30
4-048,02,경상남도,진주시,48170,경상남도 진주시 남강로1317번길 24,,35.1790397,128.127452,무림파워텍 사거리,상대안전센터,N,Y,1979,1,3,100,진주소방서,055-760-9296,2019-04-30
"문산혁신71호",01,경상남도,진주시,48170,경상남도 진주시 에나로77번길 6-20,,35.17884457,128.1385345,남도빌딩,문산안전센터,N,Y,2016,1,3,100,진주소방서,055-760-9296,2019-04-30
3-014,02,경상남도,진주시,48170,경상남도 진주시 망경남길 5-3,,35.179204,128.084967,한샘유치원앞 사거리,천전안전센터,N,Y,2003,1,3,100,진주소방서,055-760-9296,2019-04-30
"문산혁신69호",01,경상남도,진주시,48170,경상남도 진주시 영천강로 177번길 29,,35.17891454,128.1356901,한국국토정보공사,문산안전센터,N,Y,2016,1,3,100,진주소방서,055-760-9296,2019-04-30
2-028,01,경상남도,진주시,48170,경상남도 진주시 석갑로 99,,35.179124,128.061783,다원빌라 앞,평거안전센터,Y,Y,2012,1,3,100,진주소방서,055-760-9296,2019-04-30
2-093,01,경상남도,진주시,48170,경상남도 진주시 진양호로 292,,35.1792092,128.0650149,녹원빌딩 뒤,평거안전센터,Y,Y,1997,1,3,100,진주소방서,055-760-9296,2019-04-30
"문산혁신72호",01,경상남도,진주시,48170,경상남도 진주시 영천강로 172,,35.17885518,128.1397071,트라젠웰가 오피스텔,문산안전센터,Y,Y,2016,1,3,100,진주소방서,055-760-9296,2019-04-30
2-071,02,경상남도,진주시,48170,경상남도 진주시 신안들말길 26번길 5,,35.1790032,128.0690474,삼일창호 앞,평거안전센터,N,Y,1997,1,3,100,진주소방서,055-760-9296,2019-04-30
2-042,01,경상남도,진주시,48170,경상남도 진주시 신안로 10,,35.17912094,128.0719043,용마주유소 앞,평거안전센터,Y,Y,1997,1,3,100,진주소방서,055-760-9296,2019-04-30
3-033,01,경상남도,진주시,48170,경상남도 진주시 진주대로879번길 12,,35.178854,128.089762,구 역전입구쪽 공중전화박스 옆,천전안전센터,N,Y,1985,1,3,100,진주소방서,055-760-9296,2019-04-30
3-066,02,경상남도,진주시,48170,경상남도 진주시 동진로 36-1,,35.178797,128.095112,과기대 정문 GS25앞,천전안전센터,N,Y,2005,1,3,100,진주소방서,055-760-9296,2019-04-30
2-101,01,경상남도,진주시,48170,경상남도 진주시 신안들말길 30,,35.1788835,128.0687147,신안1차 주공아파트 옆,평거안전센터,N,Y,1998,1,3,100,진주소방서,055-760-9296,2019-04-30
"문산혁신21호",01,경상남도,진주시,48170,경상남도 진주시 충의로 22,,35.1764237,128.1475109,NH농협은행 진주혁신도시지점,문산안전센터,N,Y,2016,1,3,100,진주소방서,055-760-9296,2019-04-30
3-167,01,경상남도,진주시,48170,경상남도 진주시 진주대로879번길 3,,35.178722,128.090805,고려병원 건너 역전쪽 핸드폰가게앞,천전안전센터,Y,Y,2017,1,3,100,진주소방서,055-760-9296,2019-04-30
"문산혁신33호",01,경상남도,진주시,48170,경상남도 진주시 동진로 593,,35.178611,128.1557322,동진주 치안센터,문산안전센터,N,Y,2016,1,3,100,진주소방서,055-760-9296,2019-04-30
4-041,01,경상남도,진주시,48170,경상남도 진주시 대신로196번길 21,,35.1782992,128.119955,한일사 앞,상대안전센터,Y,Y,1979,1,3,100,진주소방서,055-760-9296,2019-04-30
4-049,01,경상남도,진주시,48170,경상남도 진주시 도동로88번길 17,,35.178319,128.1253337,화승직물 삼거리도로상,상대안전센터,N,Y,2008,1,3,100,진주소방서,055-760-9296,2019-04-30
2-029,01,경상남도,진주시,48170,경상남도 진주시 석갑로 91번길 2,,35.178691,128.0613782,초가집 앞,평거안전센터,Y,Y,1997,1,3,100,진주소방서,055-760-9296,2019-04-30
4-044,01,경상남도,진주시,48170,경상남도 진주시 도동로87번길 4,,35.1782415,128.122647,제일금속 사거리,상대안전센터,Y,Y,1979,1,3,100,진주소방서,055-760-9296,2019-04-30
2-148,01,경상남도,진주시,48170,경상남도 진주시 진양호로 293번길 16-23,,35.17870645,128.062816,청운빌딩 앞,평거안전센터,N,Y,2013,1,3,100,진주소방서,055-760-9296,2019-04-30
5-031,01,경상남도,진주시,48170,경상남도 진주시 대신로198,,35.17794104,128.1178756,공단교차로 방면 가야천막사 앞 인도상,상대안전센터,Y,Y,2011,1,3,100,진주소방서,055-760-9296,2019-04-30
"문산혁신37호",01,경상남도,진주시,48170,경상남도 진주시 사들로 126,,35.17989077,128.1491492,LH 4단지 아파트 404동,문산안전센터,N,Y,2016,1,3,100,진주소방서,055-760-9296,2019-04-30
"문산혁신38호",01,경상남도,진주시,48170,경상남도 진주시 사들로 126,,35.17989077,128.1491492,LH 4단지 아파트 402동,문산안전센터,Y,Y,2016,1,3,100,진주소방서,055-760-9296,2019-04-30
"문산혁신39호",01,경상남도,진주시,48170,경상남도 진주시 사들로 126,,35.17989077,128.1491492,LH 4단지 아파트 402동,문산안전센터,Y,Y,2016,1,3,100,진주소방서,055-760-9296,2019-04-30
"문산혁신43호",01,경상남도,진주시,48170,경상남도 진주시 충의로 19,,35.17824623,128.1461665,한국토지주택공사 테니스장,문산안전센터,Y,Y,2016,1,3,100,진주소방서,055-760-9296,2019-04-30
"반성18호",01,경상남도,진주시,48170,경상남도 진주시 사봉면 동부로 1851-2,,35.178495,128.269632,다무마을 경로당,문산안전센터,N,Y,2007,1,3,100,진주소방서,055-760-9296,2019-04-30
5-011,02,경상남도,진주시,48170,경상남도 진주시 솔밭로 58,,35.1741931,128.1075376,대원종합우드 사거리 동편 옆,상대안전센터,N,Y,1990,1,3,100,진주소방서,055-760-9296,2019-04-30
"문산혁신34호",01,경상남도,진주시,48170,경상남도 진주시 충의로 67,,35.17920096,128.1515545,LH 5단지 아파트 502동,문산안전센터,N,Y,2016,1,3,100,진주소방서,055-760-9296,2019-04-30
"문산혁신35호",01,경상남도,진주시,48170,경상남도 진주시 충의로 67,,35.17920096,128.1515545,LH 5단지 아파트 503동,문산안전센터,Y,Y,2016,1,3,100,진주소방서,055-760-9296,2019-04-30
"문산혁신36호",01,경상남도,진주시,48170,경상남도 진주시 충의로 67,,35.17920096,128.1515545,LH 5단지 아파트 506동,문산안전센터,Y,Y,2016,1,3,100,진주소방서,055-760-9296,2019-04-30
2-070,01,경상남도,진주시,48170,경상남도 진주시 신안들말길 12,,35.1780848,128.0703268,일반주택 앞,평거안전센터,N,Y,1993,1,3,100,진주소방서,055-760-9296,2019-04-30
3-068,01,경상남도,진주시,48170,경상남도 진주시 동진로20번길 31,,35.178182,128.095129,경대병원 후문앞 대학꽃화원 앞,천전안전센터,N,Y,1997,1,3,100,진주소방서,055-760-9296,2019-04-30
3-016,01,경상남도,진주시,48170,경상남도 진주시 천수로 152번길 5,,35.178144,128.085744,한샘어린이집 정문에서 학원지나는 위쪽길,천전안전센터,N,Y,2003,1,3,100,진주소방서,055-760-9296,2019-04-30
"문산혁신75호",01,경상남도,진주시,48170,경상남도 진주시 에나로77번길 6-13,,35.17822969,128.1383635,해오름빌딩,문산안전센터,Y,Y,2016,1,3,100,진주소방서,055-760-9296,2019-04-30
"문산혁신74호",01,경상남도,진주시,48170,경상남도 진주시 에나로77번길 5-12,,35.17771897,128.137083,엔젤빌딩,문산안전센터,Y,Y,2016,1,3,100,진주소방서,055-760-9296,2019-04-30
2-102,01,경상남도,진주시,48170,경상남도 진주시 신안들말길 10번길 6,,35.1783623,128.0707047,일반주택 앞,평거안전센터,N,Y,1998,1,3,100,진주소방서,055-760-9296,2019-04-30
5-002,01,경상남도,진주시,48170,경상남도 진주시 솔밭로 94-1,,35.1775268,128.107274,촉석아파트입구 새마을금고 맞은편,상대안전센터,Y,Y,1990,1,3,100,진주소방서,055-760-9296,2019-04-30
4-019,01,경상남도,진주시,48170,경상남도 진주시 돗골로 106번길 24,,35.1775856,128.114859,엔젤교육사 앞,상대안전센터,N,Y,1979,1,3,100,진주소방서,055-760-9296,2019-04-30
4-031,02,경상남도,진주시,48170,경상남도 진주시 솔밭로91번길 4,,35.1774777,128.106799,촉석aPT옆 향림탕 맞은편,상대안전센터,N,Y,1979,1,3,100,진주소방서,055-760-9296,2019-04-30
26,04,경상남도,진주시,48170,경상남도 진주시 신안들말길 8,,35.1779188,128.0706275,강봉재카클리닉 맞은편 대로변,평거안전센터,N,Y,1994,1,3,100,진주소방서,055-760-9296,2019-04-30
4-024,02,경상남도,진주시,48170,경상남도 진주시 돗골로 95,,35.1773936,128.112029,삼현여고 삼현여중 사이 도로상,상대안전센터,N,Y,1980,1,3,100,진주소방서,055-760-9296,2019-04-30
"문산혁신77호",01,경상남도,진주시,48170,경상남도 진주시 에나로 97,,35.17778193,128.1399731,뉴그랜드호텔,문산안전센터,N,Y,2016,1,3,100,진주소방서,055-760-9296,2019-04-30
3-015,02,경상남도,진주시,48170,경상남도 진주시 천수로 138번길 9-2,,35.177558,128.087095,갈릴리교회 길 건너 쌍방울가게 앞,천전안전센터,N,Y,1997,1,3,100,진주소방서,055-760-9296,2019-04-30
3-020,01,경상남도,진주시,48170,경상남도 진주시 진주대로 860,,35.177508,128.092255,다이소 옆,천전안전센터,N,Y,1985,1,3,100,진주소방서,055-760-9296,2019-04-30
4-025,02,경상남도,진주시,48170,경상남도 진주시 솔밭로92번길 23,,35.177506,128.109797,상평천주교회 앞,상대안전센터,N,Y,1983,1,3,100,진주소방서,055-760-9296,2019-04-30
"문산혁신76호",01,경상남도,진주시,48170,경상남도 진주시 에나로 75,,35.177467,128.1374567,세종빌딩,문산안전센터,N,Y,2016,1,3,100,진주소방서,055-760-9296,2019-04-30
"문산혁신73호",01,경상남도,진주시,48170,경상남도 진주시 소호로 102,,35.17779589,128.1358019,한국승강기안전공단,문산안전센터,N,Y,2016,1,3,100,진주소방서,055-760-9296,2019-04-30
3-073,02,경상남도,진주시,48170,경상남도 진주시 강남로 101,,35.17781737,128.0971002,칠암한주아파트 나들가게 우리마트 앞,천전안전센터,N,Y,1997,1,3,100,진주소방서,055-760-9296,2019-04-30
4,03,경상남도,진주시,48170,경상남도 진주시 진양호로 263,,35.17730302,128.0630063,삼천리자전거 서진주점 앞,평거안전센터,N,Y,1997,1,3,100,진주소방서,055-760-9296,2019-04-30
2-083,01,경상남도,진주시,48170,경상남도 진주시 진양호로 259,,35.1770375,128.0628624,바우부동산 앞,평거안전센터,N,Y,1994,1,3,100,진주소방서,055-760-9296,2019-04-30
4-050,02,경상남도,진주시,48170,경상남도 진주시 공단로 255,,35.1766729,128.127931,진양화학 동편도로상,상대안전센터,N,Y,1979,1,3,100,진주소방서,055-760-9296,2019-04-30
"문산혁신30호",01,경상남도,진주시,48170,경상남도 진주시 충의로 68,,35.1769062,128.1524804,문산중학교,문산안전센터,Y,Y,2016,1,3,100,진주소방서,055-760-9296,2019-04-30
4-046,01,경상남도,진주시,48170,경상남도 진주시 공단로 209,,35.1765936,128.122713,석광전기 앞 사거리,상대안전센터,Y,Y,1979,1,3,100,진주소방서,055-760-9296,2019-04-30
4-047,02,경상남도,진주시,48170,경상남도 진주시 공단로 231,,35.176499,128.1252749,인테리어자재백화점 앞,상대안전센터,N,Y,1979,1,3,100,진주소방서,055-760-9296,2019-04-30
4-032,01,경상남도,진주시,48170,경상남도 진주시 솔밭로 82,,35.1763847,128.1073187,생활체육관정문 용천뚝배기 맞은편,상대안전센터,Y,Y,1979,1,3,100,진주소방서,055-760-9296,2019-04-30
"문산혁신79호",01,경상남도,진주시,48170,경상남도 진주시 충무공동 102,,35.176641,128.139297,휴엔인엘리시움 맞은편,문산안전센터,N,Y,2016,1,3,100,진주소방서,055-760-9296,2019-04-30
5-095,01,경상남도,진주시,48170,경상남도 진주시 공단로43번길 25,,35.1762018,128.101941,진주기계공고 앞,상대안전센터,N,Y,2013,1,3,100,진주소방서,055-760-9296,2019-04-30
"문산혁신23호",01,경상남도,진주시,48170,경상남도 진주시 사들로 97,,35.1762606,128.1485617,버거킹 건물,문산안전센터,N,Y,2016,1,3,100,진주소방서,055-760-9296,2019-04-30
4-040,02,경상남도,진주시,48170,경상남도 진주시 공단로 187,,35.17610761,128.1204323,영일정밀 앞,상대안전센터,N,Y,1979,1,3,100,진주소방서,055-760-9296,2019-04-30
4-042,02,경상남도,진주시,48170,경상남도 진주시 공단로 167,,35.17586528,128.1181765,신일농공정문 앞 인도상,상대안전센터,N,Y,1979,1,3,100,진주소방서,055-760-9296,2019-04-30
"문산혁신78호",01,경상남도,진주시,48170,경상남도 진주시 소호로 86,,35.176111,128.1359365,법무부 준법지원센터,문산안전센터,N,Y,2016,1,3,100,진주소방서,055-760-9296,2019-04-30
"문산혁신20호",01,경상남도,진주시,48170,경상남도 진주시 에나로 128번길 28,,35.17571608,128.1449498,탑마트 충무공점,문산안전센터,N,Y,2016,1,3,100,진주소방서,055-760-9296,2019-04-30
2-110,01,경상남도,진주시,48170,경상남도 진주시 평거로 60,,35.1756158,128.0666946,진주제일중학교 옆,평거안전센터,N,Y,2003,1,3,100,진주소방서,055-760-9296,2019-04-30
4-035,02,경상남도,진주시,48170,경상남도 진주시 남강로 935,,35.1757316,128.1004891,옥산주유소 옆 인도상,상대안전센터,N,Y,1979,1,3,100,진주소방서,055-760-9296,2019-04-30
4-023,02,경상남도,진주시,48170,경상남도 진주시 공단로 113,,35.1755625,128.112321,평호타이어 앞 인도,상대안전센터,N,Y,1982,1,3,100,진주소방서,055-760-9296,2019-04-30
"반성2호",02,경상남도,진주시,48170,경상남도 진주시 일반성면 동부로 1917,,35.175689,128.275001,반성중학교,문산안전센터,N,Y,1980,1,3,100,진주소방서,055-760-9296,2019-04-30
3-069,02,경상남도,진주시,48170,경상남도 진주시 천수로108번길12,,35.175688,128.089494,금호타이어 옆 과일판매 도로상,천전안전센터,N,Y,1997,1,3,100,진주소방서,055-760-9296,2019-04-30
3-092,01,경상남도,진주시,48170,경상남도 진주시 천수로 108번길 12,,35.175687,128.089489,"망경주유소 옆, 삼천리자전거 뒤편 공터",천전안전센터,N,Y,2005,1,3,100,진주소방서,055-760-9296,2019-04-30
4-026,01,경상남도,진주시,48170,경상남도 진주시 공단로 89-1,,35.175678,128.109613,세븐일레븐 옆,상대안전센터,N,Y,1979,1,3,100,진주소방서,055-760-9296,2019-04-30
4-020,01,경상남도,진주시,48170,경상남도 진주시 공단로 139,,35.175644,128.1152313,진주아파트 인근 GS편의점 앞,상대안전센터,N,Y,1979,1,3,100,진주소방서,055-760-9296,2019-04-30
2-111,01,경상남도,진주시,48170,경상남도 진주시 진양호로 241,,35.175521,128.0618677,성경빌딩 앞,평거안전센터,N,Y,2003,1,3,100,진주소방서,055-760-9296,2019-04-30
"문산혁신22호",01,경상남도,진주시,48170,경상남도 진주시 충의로 20-18,,35.17516345,128.1477259,비즈원 건물,문산안전센터,Y,Y,2016,1,3,100,진주소방서,055-760-9296,2019-04-30
"문산혁신80호",01,경상남도,진주시,48170,경상남도 진주시 충무공동 135-8,,35.175505,128.139531,E-4 블럭형 택지,문산안전센터,N,Y,2016,1,3,100,진주소방서,055-760-9296,2019-04-30
4-033,01,경상남도,진주시,48170,경상남도 진주시 공단로 17,,35.1750734,128.1017201,동일아파트앞 금동탕 맞은편,상대안전센터,N,Y,1979,1,3,100,진주소방서,055-760-9296,2019-04-30
4-029,01,경상남도,진주시,48170,경상남도 진주시 솔밭로 66,,35.17503728,128.1074516,생활체육관 건너 횡단보도상,상대안전센터,N,Y,1979,1,3,100,진주소방서,055-760-9296,2019-04-30
2-097,01,경상남도,진주시,48170,경상남도 진주시 석갑로 45,,35.1763919,128.0655056,들말흥한아파트 입구,평거안전센터,N,Y,1998,1,3,100,진주소방서,055-760-9296,2019-04-30
"문산혁신15호",01,경상남도,진주시,48170,경상남도 진주시 사들로 56,,35.17268451,128.1490887,혁신 2초등학교,문산안전센터,Y,Y,2016,1,3,100,진주소방서,055-760-9296,2019-04-30
"문산혁신41호",01,경상남도,진주시,48170,경상남도 진주시 사들로 123번길 16,,35.17950197,128.1468077,한국토지주택공사,문산안전센터,Y,Y,2016,1,3,100,진주소방서,055-760-9296,2019-04-30
"문산혁신1호",01,경상남도,진주시,48170,경상남도 진주시 충무공동 293,,35.175014,128.150359,중흥S클래스 C-2(탑마트 남쪽 300m),문산안전센터,N,Y,2016,1,3,100,진주소방서,055-760-9296,2019-04-30
"문산혁신18호",01,경상남도,진주시,48170,경상남도 진주시 사들로 35,,35.17294039,128.1460613,LH 9단지 아파트,문산안전센터,N,Y,2016,1,3,100,진주소방서,055-760-9296,2019-04-30
4-043,01,경상남도,진주시,48170,경상남도 진주시 도동로 58,,35.1747305,128.125195,동서산업 후문앞 인도상,상대안전센터,Y,Y,1979,1,3,100,진주소방서,055-760-9296,2019-04-30
5-025,02,경상남도,진주시,48170,경상남도 진주시 돗골로70번길 19,,35.17449565,128.1146188,한독기계 정문 옆 전봇대,상대안전센터,N,Y,1990,1,3,100,진주소방서,055-760-9296,2019-04-30
"문산혁신24호",01,경상남도,진주시,48170,경상남도 진주시 충의로 153,,35.1748389,128.1495083,충무공동 우체국,문산안전센터,N,Y,2016,1,3,100,진주소방서,055-760-9296,2019-04-30
5-005,02,경상남도,진주시,48170,경상남도 진주시 돗골로 69,,35.1744771,128.112447,금오철강 전봇대 옆,상대안전센터,N,Y,1990,1,3,100,진주소방서,055-760-9296,2019-04-30
5-003,02,경상남도,진주시,48170,경상남도 진주시 돗골로69번길,,35.174801,128.111141,금오철강 입구 왼편 전봇대 앞,상대안전센터,N,Y,1990,1,3,100,진주소방서,055-760-9296,2019-04-30
"문산혁신10호",01,경상남도,진주시,48170,경상남도 진주시 사들로 34번길 14-12,,35.17010983,128.1472553,남해고속도로 옆 택지,문산안전센터,Y,Y,2016,1,3,100,진주소방서,055-760-9296,2019-04-30
"문산혁신11호",01,경상남도,진주시,48170,경상남도 진주시 사들로 42,,35.17152794,128.1482631,아이프라자,문산안전센터,Y,Y,2016,1,3,100,진주소방서,055-760-9296,2019-04-30
"문산혁신13호",01,경상남도,진주시,48170,경상남도 진주시 사들로 42번길,,35.1747508,128.1503591,문산휴게소,문산안전센터,Y,Y,2016,1,3,100,진주소방서,055-760-9296,2019-04-30
"문산혁신14호",01,경상남도,진주시,48170,경상남도 진주시 사들로60번길 15,,35.17232456,128.1494159,어울림,문산안전센터,Y,Y,2016,1,3,100,진주소방서,055-760-9296,2019-04-30
"문산혁신25호",01,경상남도,진주시,48170,경상남도 진주시 충의로 145,,35.17483252,128.1503591,충무공동행정복지센터,문산안전센터,N,Y,2016,1,3,100,진주소방서,055-760-9296,2019-04-30
"문산혁신26호",01,경상남도,진주시,48170,경상남도 진주시 충의로 145,,35.17483252,128.1503591,칠암교회(신축중),문산안전센터,N,Y,2016,1,3,100,진주소방서,055-760-9296,2019-04-30
"문산혁신27호",01,경상남도,진주시,48170,경상남도 진주시 충의로 119,,35.17461076,128.1527763,아슬란스포츠몰,문산안전센터,Y,Y,2016,1,3,100,진주소방서,055-760-9296,2019-04-30
"문산혁신42호",01,경상남도,진주시,48170,경상남도 진주시 사들로 123번길 42,,35.17979149,128.1436414,한국남동발전,문산안전센터,Y,Y,2016,1,3,100,진주소방서,055-760-9296,2019-04-30
"문산혁신46호",01,경상남도,진주시,48170,경상남도 진주시 충무공동 225-1,,35.1747508,128.1503591,라온프라이빗 위브 북쪽50m,문산안전센터,N,Y,2016,1,3,100,진주소방서,055-760-9296,2019-04-30
"문산혁신53호",01,경상남도,진주시,48170,경상남도 진주시 사들로 156번길 9,,35.18165051,128.1502454,동부스퀘어빌딩,문산안전센터,Y,Y,2016,1,3,100,진주소방서,055-760-9296,2019-04-30
"문산혁신54호",01,경상남도,진주시,48170,경상남도 진주시 사들로 157,,35.18198351,128.1478261,LH1단지아파트 101동,문산안전센터,N,Y,2016,1,3,100,진주소방서,055-760-9296,2019-04-30
"문산혁신57호",01,경상남도,진주시,48170,경상남도 진주시 대밭골로59번길 13-2,,35.18366238,128.1521224,폴비락,문산안전센터,Y,Y,2016,1,3,100,진주소방서,055-760-9296,2019-04-30
"문산혁신81호",01,경상남도,진주시,48170,경상남도 진주시 충무공동 75,,35.174649,128.134263,E-17 건너편 근린공원,문산안전센터,N,Y,2016,1,3,100,진주소방서,055-760-9296,2019-04-30
5-016,02,경상남도,진주시,48170,경상남도 진주시 남강로 1057,,35.1693674,128.1078189,명성가스 맞은편,상대안전센터,N,Y,1990,1,3,100,진주소방서,055-760-9296,2019-04-30
3-019,01,경상남도,진주시,48170,경상남도 진주시 진주대로 829,,35.174464,128.092989,세란병원입구 전봇대 앞,천전안전센터,Y,Y,2019,1,3,100,진주소방서,055-760-9296,2019-04-30
"문산혁신86호",01,경상남도,진주시,48170,경상남도 진주시 충무공동 135-20,,35.174288,128.139477,E-4 출입구 옆,문산안전센터,N,Y,2016,1,3,100,진주소방서,055-760-9296,2019-04-30
5-010,02,경상남도,진주시,48170,경상남도 진주시 공단로 44번길12,,35.1740071,128.103785,동일스위트아파트 동문/석류맨션 나동 사거리,상대안전센터,N,Y,1990,1,3,100,진주소방서,055-760-9296,2019-04-30
"문산혁신82호",01,경상남도,진주시,48170,경상남도 진주시 영천강로 119번길 19,,35.1736968,128.1377207,E-17 블럭형 택지,문산안전센터,Y,Y,2016,1,3,100,진주소방서,055-760-9296,2019-04-30
2-063,01,경상남도,진주시,48170,경상남도 진주시 순환로 573번길 9,,35.17409051,128.058539,가야모텔 맞은편,평거안전센터,N,Y,1997,1,3,100,진주소방서,055-760-9296,2019-04-30
2-064,01,경상남도,진주시,48170,경상남도 진주시 순환로 565번길,,35.174153,128.059107,평거119안전센터 앞,평거안전센터,N,Y,2017,1,3,100,진주소방서,055-760-9296,2019-04-30
4-037,02,경상남도,진주시,48170,경상남도 진주시 대신로 147번길 4,,35.1736556,128.117423,한국타이어 동양종합정비,상대안전센터,N,Y,1979,1,3,100,진주소방서,055-760-9296,2019-04-30
4-051,01,경상남도,진주시,48170,경상남도 진주시 남강로1259번길 5,,35.1735758,128.126882,샤인빌모텔 삼거리,상대안전센터,Y,Y,1980,1,3,100,진주소방서,055-760-9296,2019-04-30
"문산혁신17호",01,경상남도,진주시,48170,경상남도 진주시 사들로 61,,35.173818,128.147719,대방노블랜드,문산안전센터,N,Y,2016,1,3,100,진주소방서,055-760-9296,2019-04-30
2-176,01,경상남도,진주시,48170,경상남도 진주시 남강로 1번길 103,,35.173798,128.0356315,진양호편의점 앞,평거안전센터,Y,Y,2016,1,3,100,진주소방서,055-760-9296,2019-04-30
2-108,01,경상남도,진주시,48170,경상남도 진주시 평거로 42,,35.17385177,128.0651787,진양호지구대 앞,평거안전센터,N,Y,1999,1,3,100,진주소방서,055-760-9296,2019-04-30
"문산혁신85호",01,경상남도,진주시,48170,경상남도 진주시 영천강로 119번길 24-12,,35.17335934,128.136491,단독주택,문산안전센터,Y,Y,2016,1,3,100,진주소방서,055-760-9296,2019-04-30
4-034,02,경상남도,진주시,48170,경상남도 진주시 남강로 969번길 6-2,,35.173771,128.099934,주택옆 도로상과 대림아파트 3동 옆 (강변 대림아파트끝에서 22미터 전봇대와 3미터 지점),상대안전센터,N,Y,1981,1,3,100,진주소방서,055-760-9296,2019-04-30
4-097,02,경상남도,진주시,48170,경상남도 진주시 돗골로 61,,35.173765,128.1124048,대성직물공업사 옆,상대안전센터,N,Y,1988,1,3,100,진주소방서,055-760-9296,2019-04-30
5-029,02,경상남도,진주시,48170,경상남도 진주시 솔밭로 47,,35.1733064,128.107111,대원제재소에서 서편 진산주류 경계지점 앞 도로상,상대안전센터,N,Y,1992,1,3,100,진주소방서,055-760-9296,2019-04-30
2-096,01,경상남도,진주시,48170,경상남도 진주시 평거로 39번길 9,,35.17370841,128.0630298,평거들말한보 입구,평거안전센터,N,Y,1998,1,3,100,진주소방서,055-760-9296,2019-04-30
"문산혁신83호",01,경상남도,진주시,48170,경상남도 진주시 충무공동 47-18,,35.173425,128.132631,한림풀에버 105동방향 주출입로 횡단보도 맞은편,문산안전센터,N,Y,2016,1,3,100,진주소방서,055-760-9296,2019-04-30
25,04,경상남도,진주시,48170,경상남도 진주시 순환로 555,,35.173398,128.0595759,GS25편의점 앞,평거안전센터,N,Y,1994,1,3,100,진주소방서,055-760-9296,2019-04-30
5-101,01,경상남도,진주시,48170,경상남도 진주시 대신로146,,35.1730934,128.119058,신흥고무 정문에서 한일병원방향 30m지점 인도상,상대안전센터,N,Y,2015,1,3,100,진주소방서,055-760-9296,2019-04-30
"문산혁신84호",01,경상남도,진주시,48170,경상남도 진주시 충무공동 76,,35.173381,128.135589,한림풀에버 101동,문산안전센터,N,Y,2016,1,3,100,진주소방서,055-760-9296,2019-04-30
5-032,02,경상남도,진주시,48170,경상남도 진주시 남강로 971번길 45,,35.1729787,128.1046355,신무림제지 뒤 금우식당 사거리,상대안전센터,N,Y,1992,1,3,100,진주소방서,055-760-9296,2019-04-30
"문산혁신87호",01,경상남도,진주시,48170,경상남도 진주시 영천강로 119번길 26,,35.173248,128.1373236,대흥빌딩,문산안전센터,Y,Y,2016,1,3,100,진주소방서,055-760-9296,2019-04-30
4-028,01,경상남도,진주시,48170,경상남도 진주시 솔밭로44번길 2,,35.17281923,128.107521,상성금속 앞,상대안전센터,N,Y,1981,1,3,100,진주소방서,055-760-9296,2019-04-30
2-109,01,경상남도,진주시,48170,경상남도 진주시 남강로 373번길 12,,35.17281213,128.0673781,국제대학교부설유치원 앞,평거안전센터,N,Y,1999,1,3,100,진주소방서,055-760-9296,2019-04-30
5-026,02,경상남도,진주시,48170,경상남도 진주시 돗골로 48,,35.1722833,128.112932,아주금속,상대안전센터,N,Y,1990,1,3,100,진주소방서,055-760-9296,2019-04-30
5-004,01,경상남도,진주시,48170,경상남도 진주시 큰들로65번길 16,,35.1725356,128.1102778,㈜희주테크 정문 우측 전봇대 옆,상대안전센터,Y,Y,1990,1,3,100,진주소방서,055-760-9296,2019-04-30
5-006,02,경상남도,진주시,48170,경상남도 진주시 큰들로113번길 15,,35.17247247,128.1150829,서정정밀㈜,상대안전센터,N,Y,1990,1,3,100,진주소방서,055-760-9296,2019-04-30
2-095,01,경상남도,진주시,48170,경상남도 진주시 순환로 546,,35.1729968,128.0608964,GS수퍼마켓 진주평거점 앞,평거안전센터,N,Y,1998,1,3,100,진주소방서,055-760-9296,2019-04-30
"문산혁신88호",01,경상남도,진주시,48170,경상남도 진주시 충무공동 124-6,,35.172621,128.138764,E-4 블럭형 택지,문산안전센터,N,Y,2016,1,3,100,진주소방서,055-760-9296,2019-04-30
2-065,01,경상남도,진주시,48170,경상남도 진주시 순환로 553번길 7,,35.17265268,128.0592576,한보하이타운아파트 상가동 앞,평거안전센터,N,Y,1993,1,3,100,진주소방서,055-760-9296,2019-04-30
"반성3호",02,경상남도,진주시,48170,경상남도 진주시 일반성면 창촌길 21,,35.1723472,128.277124,부흥기계,문산안전센터,N,Y,1980,1,3,100,진주소방서,055-760-9296,2019-04-30
"반성5호",02,경상남도,진주시,48170,경상남도 진주시 일반성면 창촌길 49,,35.172222,128.280263,신촌마을회관 인근,문산안전센터,N,Y,1980,1,3,100,진주소방서,055-760-9296,2019-04-30
5-030,01,경상남도,진주시,48170,경상남도 진주시 돗골로 41,,35.1720739,128.112316,아주금속 건너편,상대안전센터,N,Y,1992,1,3,100,진주소방서,055-760-9296,2019-04-30
"반성15호",01,경상남도,진주시,48170,경상남도 진주시 일반성면 동부로 1945,,35.172266,128.275853,창촌연합의원,문산안전센터,N,Y,1980,1,3,100,진주소방서,055-760-9296,2019-04-30
"반성6호",01,경상남도,진주시,48170,경상남도 진주시 일반성면 창촌길 63,,35.172241,128.281252,반성교회 앞,문산안전센터,N,Y,2018,1,3,100,진주소방서,055-760-9296,2019-04-30
"반성4호",01,경상남도,진주시,48170,경상남도 진주시 일반성면 창촌길 27-1,,35.1720043,128.2776959,일반성파출소,문산안전센터,Y,Y,2015,1,3,100,진주소방서,055-760-9296,2019-04-30
"문산13호",02,경상남도,진주시,48170,경상남도 진주시 문산읍 소문길 107,,35.1719538,128.173042,부동 하천 옆 수양버드나무,문산안전센터,N,Y,1990,1,3,100,진주소방서,055-760-9296,2019-04-30
"문산혁신90호",01,경상남도,진주시,48170,경상남도 진주시 소호로 39,,35.17041623,128.1323185,한림풀에버 정문,문산안전센터,N,Y,2016,1,3,100,진주소방서,055-760-9296,2019-04-30
3-017,02,경상남도,진주시,48170,경상남도 진주시 천수로 64,,35.172119,128.091686,주약초등학교 정문 앞,천전안전센터,N,Y,2003,1,3,100,진주소방서,055-760-9296,2019-04-30
2-130,01,경상남도,진주시,48170,경상남도 진주시 남강로 309번길 42-26,,35.17208331,128.059641,대원빌딩 다이소,평거안전센터,N,Y,2013,1,3,100,진주소방서,055-760-9296,2019-04-30
5-053,01,경상남도,진주시,48170,경상남도 진주시 큰들로 201,,35.171783,128.124978,동방주유소 남편 모서리,상대안전센터,N,Y,1994,1,3,100,진주소방서,055-760-9296,2019-04-30
4-045,02,경상남도,진주시,48170,경상남도 진주시 도동로 17,,35.1717542,128.1231521,동서산업도로 남편 사거리,상대안전센터,N,Y,1979,1,3,100,진주소방서,055-760-9296,2019-04-30
5-053,01,경상남도,진주시,48170,경상남도 진주시 큰들로 201,,35.171783,128.124938,동방주유소 남편 모서리,상대안전센터,N,Y,1993,1,3,100,진주소방서,055-760-9296,2019-04-30
2-100,02,경상남도,진주시,48170,경상남도 진주시 진양호로 185번길 6,,35.17193817,128.0585107,월드슈퍼빌 앞,평거안전센터,N,Y,2002,1,3,100,진주소방서,055-760-9296,2019-04-30
"문산34호",01,경상남도,진주시,48170,경상남도 진주시 문산읍 월아산로 996번길 43,,35.16053459,128.1691104,진주 직물협동조합,문산안전센터,N,Y,2012,1,3,100,진주소방서,055-760-9296,2019-04-30
2-105,01,경상남도,진주시,48170,경상남도 진주시 평거로 14번길 2,,35.1717505,128.0630614,만리장성 앞,평거안전센터,Y,Y,2017,1,3,100,진주소방서,055-760-9296,2019-04-30
4-030,02,경상남도,진주시,48170,경상남도 진주시 솔밭로31번길 24,,35.171826,128.104831,신무림제지창고 뒤 삼거리 도로상,상대안전센터,Y,Y,1979,1,3,100,진주소방서,055-760-9296,2019-04-30
4-039,01,경상남도,진주시,48170,경상남도 진주시 큰들로 141,,35.17150342,128.118549,한일병원 동북편 모서리(태광타이어 남편 인도),상대안전센터,Y,Y,2008,1,3,100,진주소방서,055-760-9296,2019-04-30
"문산혁신92호",01,경상남도,진주시,48170,경상남도 진주시 영천강로119번길 37,,35.17144773,128.137262,무지개초등하교 북문,문산안전센터,Y,Y,2016,1,3,100,진주소방서,055-760-9296,2019-04-30
"문산혁신93호",01,경상남도,진주시,48170,경상남도 진주시 영천강로119번길 37,,35.17144773,128.137262,무지개초등학교 정문,문산안전센터,N,Y,2016,1,3,100,진주소방서,055-760-9296,2019-04-30
"반성12호",02,경상남도,진주시,48170,경상남도 진주시 일반성면 창촌길 36,,35.1715736,128.2783872,대신요업,문산안전센터,N,Y,1980,1,3,100,진주소방서,055-760-9296,2019-04-30
2-092,01,경상남도,진주시,48170,경상남도 진주시 평거로 5,,35.17173814,128.062457,GS25편의점 앞,평거안전센터,N,Y,1997,1,3,100,진주소방서,055-760-9296,2019-04-30
4-022,01,경상남도,진주시,48170,경상남도 진주시 큰들로 91,,35.171634,128.113265,흑돼지두루치기 앞,상대안전센터,N,Y,2011,1,3,100,진주소방서,055-760-9296,2019-04-30
"문산40호",01,경상남도,진주시,48170,경상남도 진주시 문산읍 소문길 43번길 11,,35.1713058,128.166614,오복탕제원에서 북측 100m,문산안전센터,Y,Y,2015,1,3,100,진주소방서,055-760-9296,2019-04-30
5-020,02,경상남도,진주시,48170,경상남도 진주시 큰들로 87,,35.171196,128.112287,동국강변타워 1차 북서사거리 원예농협 앞,상대안전센터,N,Y,1990,1,3,100,진주소방서,055-760-9296,2019-04-30
"반성7호",01,경상남도,진주시,48170,경상남도 진주시 일반성면 동부로 1993번길 32,,35.171194,128.282697,반성시장,문산안전센터,N,Y,2018,1,3,100,진주소방서,055-760-9296,2019-04-30
"문산혁신3호",01,경상남도,진주시,48170,경상남도 진주시 에나로 228번길 10,,35.17020379,128.1426553,LH 10단지,문산안전센터,N,Y,2016,1,3,100,진주소방서,055-760-9296,2019-04-30
2-131,01,경상남도,진주시,48170,경상남도 진주시 남강로 309번길 44,,35.17125169,128.060741,코앞2빌딩,평거안전센터,N,Y,2013,1,3,100,진주소방서,055-760-9296,2019-04-30
"반성1호",01,경상남도,진주시,48170,경상남도 진주시 일반성면 동부로 1959번길 2,,35.1712599,128.277164,일반성면주민센터,문산안전센터,N,Y,2004,1,3,100,진주소방서,055-760-9296,2019-04-30
"문산14호",02,경상남도,진주시,48170,경상남도 진주시 문산읍 삼곡길 102,,35.1710381,128.1716207,주정교,문산안전센터,N,Y,1990,1,3,100,진주소방서,055-760-9296,2019-04-30
5-023,02,경상남도,진주시,48170,경상남도 진주시 대신로 120,,35.1710386,128.118588,구.한일병원 남쪽,상대안전센터,N,Y,1990,1,3,100,진주소방서,055-760-9296,2019-04-30
"반성8호",02,경상남도,진주시,48170,경상남도 진주시 일반성면 창촌길 93,,35.17083352,128.2838551,반성시장,문산안전센터,N,Y,1980,1,3,100,진주소방서,055-760-9296,2019-04-30
2-129,01,경상남도,진주시,48170,경상남도 진주시 남강로 309번길 44,,35.17125169,128.060741,코앞2빌딩,평거안전센터,N,Y,2013,1,3,100,진주소방서,055-760-9296,2019-04-30
5-009,02,경상남도,진주시,48170,경상남도 진주시 큰들로112번길,,35.171114,128.114939,또올편의점 앞(우신정비건너편),상대안전센터,N,Y,1990,1,3,100,진주소방서,055-760-9296,2019-04-30
5-022,02,경상남도,진주시,48170,경상남도 진주시 대신로 115번길 14,,35.1707826,128.116668,상평동 오션모텔 앞,상대안전센터,N,Y,1990,1,3,100,진주소방서,055-760-9296,2019-04-30
4-021,02,경상남도,진주시,48170,경상남도 진주시 큰들로 112,,35.1708509,128.114907,우신정비 앞,상대안전센터,N,Y,1981,1,3,100,진주소방서,055-760-9296,2019-04-30
"문산10호",01,경상남도,진주시,48170,경상남도 진주시 문산읍 동부로 673,,35.1708965,128.172371,성아주유소,문산안전센터,Y,Y,2015,1,3,100,진주소방서,055-760-9296,2019-04-30
4-027,01,경상남도,진주시,48170,경상남도 진주시 큰들로44,,35.17076215,128.107709,팩토리SR 앞,상대안전센터,N,Y,1981,1,3,100,진주소방서,055-760-9296,2019-04-30
5-015,02,경상남도,진주시,48170,경상남도 진주시 남강로1027번길 7,,35.1701692,128.1053488,태양제지 공장옆 접속도로(영도공업사앞),상대안전센터,N,Y,1990,1,3,100,진주소방서,055-760-9296,2019-04-30
"문산15호",01,경상남도,진주시,48170,경상남도 진주시 문산읍 소문길 69,,35.17072758,128.169385,면전교,문산안전센터,Y,Y,1990,1,3,100,진주소방서,055-760-9296,2019-04-30
"문산18호",02,경상남도,진주시,48170,경상남도 진주시 문산읍 소문길 31,,35.1707583,128.165412,정식품(베지밀),문산안전센터,N,Y,1990,1,3,100,진주소방서,055-760-9296,2019-04-30
3-018,01,경상남도,진주시,48170,경상남도 진주시 진주대로 784,,35.170983,128.095665,탑마트 사거리-한보은빛마을 107동 담장 밖 도로변,천전안전센터,Y,Y,2017,1,3,100,진주소방서,055-760-9296,2019-04-30
"문산16호",02,경상남도,진주시,48170,경상남도 진주시 문산읍 소문길 47-2,,35.170974,128.166908,중앙약방,문산안전센터,N,Y,1990,1,3,100,진주소방서,055-760-9296,2019-04-30
4-038,02,경상남도,진주시,48170,경상남도 진주시 대신로 121,,35.1707401,128.1177142,동진주유소 동북편 모서리,상대안전센터,N,Y,1982,1,3,100,진주소방서,055-760-9296,2019-04-30
"반성14호",01,경상남도,진주시,48170,경상남도 진주시 일반성면 개암길 51,,35.1708251,128.296357,개암길 안동네,문산안전센터,N,Y,2005,1,3,100,진주소방서,055-760-9296,2019-04-30
5-018,02,경상남도,진주시,48170,경상남도 진주시 솔밭로14번길 11,,35.170802,128.108567,천안문,상대안전센터,N,Y,1990,1,3,100,진주소방서,055-760-9296,2019-04-30
5-013,02,경상남도,진주시,48170,경상남도 진주시 큰들로 18,,35.170542,128.103656,대림화학 정문 동편 인도상,상대안전센터,N,Y,1990,1,3,100,진주소방서,055-760-9296,2019-04-30
5-052,02,경상남도,진주시,48170,경상남도 진주시 남강로 1207,,35.1704088,128.1236013,수경장여관 정문 앞,상대안전센터,N,Y,1994,1,3,100,진주소방서,055-760-9296,2019-04-30
5-021,01,경상남도,진주시,48170,경상남도 진주시 돗골로 26번길 12,,35.1704111,128.113884,제일택시 입구 우측,상대안전센터,Y,Y,1990,1,3,100,진주소방서,055-760-9296,2019-04-30
"문산19호",01,경상남도,진주시,48170,경상남도 진주시 문산읍 소문길 12,,35.1704577,128.163029,문산초등학교 앞 둘리문구,문산안전센터,N,Y,1990,1,3,100,진주소방서,055-760-9296,2019-04-30
"문산20호",01,경상남도,진주시,48170,경상남도 진주시 문산읍 소문길 2,,35.1704852,128.162038,코아루,문산안전센터,N,Y,1990,1,3,100,진주소방서,055-760-9296,2019-04-30
2-107,02,경상남도,진주시,48170,경상남도 진주시 신평공원길 11번길 7,,35.17058778,128.064942,OJAcafe 앞,평거안전센터,N,Y,1999,1,3,100,진주소방서,055-760-9296,2019-04-30
2-104,02,경상남도,진주시,48170,경상남도 진주시 평거로 10번길 16,,35.170641,128.0635914,우가촌냉면 앞,평거안전센터,N,Y,1999,1,3,100,진주소방서,055-760-9296,2019-04-30
"문산혁신91호",01,경상남도,진주시,48170,경상남도 진주시 소호로 39,,35.17041623,128.1323185,한림풀에버 118동,문산안전센터,Y,Y,2016,1,3,100,진주소방서,055-760-9296,2019-04-30
3-109,01,경상남도,진주시,48170,경상남도 진주시 주약약골길 25-4,,35.170607,128.089473,약골마을 주약경로당 게시판 옆,천전안전센터,N,Y,2007,1,3,100,진주소방서,055-760-9296,2019-04-30
"문산39호",02,경상남도,진주시,48170,경상남도 진주시 문산읍 동부로 659,,35.1701626,128.171165,함초보리밥,문산안전센터,N,Y,1990,1,3,100,진주소방서,055-760-9296,2019-04-30
2-132,01,경상남도,진주시,48170,경상남도 진주시 새평거로 136,,35.17037266,128.0619019,탑마트 주차장입구 옆,평거안전센터,Y,Y,2013,1,3,100,진주소방서,055-760-9296,2019-04-30
"반성9호",01,경상남도,진주시,48170,경상남도 진주시 일반성면 동부로 2046,,35.1702468,128.2853087,새반성교회,문산안전센터,Y,Y,1980,1,3,100,진주소방서,055-760-9296,2019-04-30
4-083,02,경상남도,진주시,48170,경상남도 진주시 큰들로 66,,35.1708149,128.1100351,대연정공 남편 천안문 앞,상대안전센터,N,Y,1984,1,3,100,진주소방서,055-760-9296,2019-04-30
2-106,01,경상남도,진주시,48170,경상남도 진주시 신평공원길 7번길 9,,35.1704043,128.0643668,J골프스크린 앞,평거안전센터,N,Y,1999,1,3,100,진주소방서,055-760-9296,2019-04-30
"문산17호",02,경상남도,진주시,48170,경상남도 진주시 문산읍 동부로 609번길 20,,35.1699705,128.167305,원당교,문산안전센터,N,Y,1990,1,3,100,진주소방서,055-760-9296,2019-04-30
"반성10호",01,경상남도,진주시,48170,경상남도 진주시 일반성면 동부로2057,,35.17012288,128.286664,반성초등학교,문산안전센터,N,Y,1980,1,3,100,진주소방서,055-760-9296,2019-04-30
"문산21호",01,경상남도,진주시,48170,경상남도 진주시 문산읍 월아산로 1110,,35.1700108,128.1621817,문산카센터,문산안전센터,Y,Y,2010,1,3,100,진주소방서,055-760-9296,2019-04-30
"반성11호",02,경상남도,진주시,48170,경상남도 진주시 일반성면 동부로 2059번길 3,,35.1700618,128.286938,선동마을회관,문산안전센터,N,Y,1980,1,3,100,진주소방서,055-760-9296,2019-04-30
"문산42호",01,경상남도,진주시,48170,경상남도 진주시 문산읍 동부로 631번길 15,,35.1698692,128.1682447,원당교 우측 100m,문산안전센터,Y,Y,2017,1,3,100,진주소방서,055-760-9296,2019-04-30
"문산혁신7호",01,경상남도,진주시,48170,경상남도 진주시 사들로 10,,35.16982387,128.1450911,LH 9단지 앞,문산안전센터,N,Y,2016,1,3,100,진주소방서,055-760-9296,2019-04-30
"문산혁신94호",01,경상남도,진주시,48170,경상남도 진주시 충무공동 128,,35.170121,128.136897,고등학교 예정부지,문산안전센터,N,Y,2016,1,3,100,진주소방서,055-760-9296,2019-04-30
5-019,02,경상남도,진주시,48170,경상남도 진주시 남강로 1179번길 10-2,,35.169774,128.1211764,동현기전(구.서정정밀 앞),상대안전센터,N,Y,1990,1,3,100,진주소방서,055-760-9296,2019-04-30
"문산혁신108호",01,경상남도,진주시,48170,경상남도 진주시 충무공동 56-1,,35.170034,128.129413,현서네국밥,문산안전센터,Y,Y,2016,1,3,100,진주소방서,055-760-9296,2019-04-30
5-017,02,경상남도,진주시,48170,경상남도 진주시 남강로 1041,,35.1697493,128.1062100,동양상사 오른편 도로상,상대안전센터,N,Y,1990,1,3,100,진주소방서,055-760-9296,2019-04-30
2-052,01,경상남도,진주시,48170,경상남도 진주시 판문로 30-1,,35.17003531,128.0443088,일반주택 앞,평거안전센터,N,Y,2010,1,3,100,진주소방서,055-760-9296,2019-04-30
5-012,02,경상남도,진주시,48170,경상남도 진주시 남강로1065,,35.1693712,128.1085884,신 경남일보 동편 교차로,상대안전센터,N,Y,1990,1,3,100,진주소방서,055-760-9296,2019-04-30
"문산혁신4호",01,경상남도,진주시,48170,경상남도 진주시 에나로 228번길 10,,35.17020379,128.1426553,LH 10단지 정문 옆,문산안전센터,Y,Y,2016,1,3,100,진주소방서,055-760-9296,2019-04-30
5-074,01,경상남도,진주시,48170,경상남도 진주시 대신로 103번길 6,,35.1696241,128.117869,구.한일병원 건너(넥센타이어 앞),상대안전센터,N,Y,2003,1,3,100,진주소방서,055-760-9296,2019-04-30
"문산혁신107호",01,경상남도,진주시,48170,경상남도 진주시 범골로 56,,35.16966671,128.1311227,주택관리공단,문산안전센터,N,Y,2016,1,3,100,진주소방서,055-760-9296,2019-04-30
"문산혁신106호",01,경상남도,진주시,48170,경상남도 진주시 범골로60번길 16,,35.169753,128.1324018,아름파크,문산안전센터,Y,Y,2016,1,3,100,진주소방서,055-760-9296,2019-04-30
2-076,01,경상남도,진주시,48170,경상남도 진주시 진양호로 125번길 20,,35.169669,128.052684,산앤들푸드마켓 앞,평거안전센터,Y,Y,2017,1,3,100,진주소방서,055-760-9296,2019-04-30
5-028,02,경상남도,진주시,48170,경상남도 진주시 남강로 1181,,35.16943684,128.120958,동신주유소 앞,상대안전센터,N,Y,1990,1,3,100,진주소방서,055-760-9296,2019-04-30
"문산혁신5호",01,경상남도,진주시,48170,경상남도 진주시 에나로 228번길 10,,35.17020379,128.1426553,LH 10단지 정문 우측,문산안전센터,Y,Y,2016,1,3,100,진주소방서,055-760-9296,2019-04-30
2-138,01,경상남도,진주시,48170,경상남도 진주시 새평거로 112,,35.16906156,128.0592944,엘크루 정문 오른쪽,평거안전센터,N,Y,2013,1,3,100,진주소방서,055-760-9296,2019-04-30
"반성16호",02,경상남도,진주시,48170,경상남도 진주시 일반성면 떡보길 2,,35.169581,128.2783376,행복예식장,문산안전센터,N,Y,1980,1,3,100,진주소방서,055-760-9296,2019-04-30
"문산혁신8호",01,경상남도,진주시,48170,경상남도 진주시 사들로 34번길 6-27,,35.16948854,128.1454772,보람모터스,문산안전센터,Y,Y,2016,1,3,100,진주소방서,055-760-9296,2019-04-30
"문산혁신95호",01,경상남도,진주시,48170,경상남도 진주시 영천강로68번길 7,,35.16966193,128.137745,진주 익룡발자국 전시관,문산안전센터,Y,Y,2016,1,3,100,진주소방서,055-760-9296,2019-04-30
"반성13호",01,경상남도,진주시,48170,경상남도 진주시 일반성면 개암길 15,,35.169522,128.294245,개암정미소,문산안전센터,N,Y,2005,1,3,100,진주소방서,055-760-9296,2019-04-30
5-075,01,경상남도,진주시,48170,경상남도 진주시 돗골로 12,,35.1692499,128.1130892,국민1차a부근 도동신용협동조합 상평지소 앞,상대안전센터,N,Y,2003,1,3,100,진주소방서,055-760-9296,2019-04-30
2-133,01,경상남도,진주시,48170,경상남도 진주시 남강로 309번길 20,,35.169414,128.0625222,더테라스주차빌딩 앞,평거안전센터,N,Y,2013,1,3,100,진주소방서,055-760-9296,2019-04-30
"문산혁신9호",01,경상남도,진주시,48170,경상남도 진주시 사들로 35,,35.17294039,128.1460613,LH 8단지 정문 좌측,문산안전센터,N,Y,2016,1,3,100,진주소방서,055-760-9296,2019-04-30
2-103,01,경상남도,진주시,48170,경상남도 진주시 순환로 502,,35.1697916,128.0638932,주원장작구이 앞,평거안전센터,Y,Y,1999,1,3,100,진주소방서,055-760-9296,2019-04-30
"문산9호",02,경상남도,진주시,48170,경상남도 진주시 문산읍 동부로 641,,35.1690124,128.169838,천궁다방,문산안전센터,N,Y,2015,1,3,100,진주소방서,055-760-9296,2019-04-30
"문산12호",02,경상남도,진주시,48170,경상남도 진주시 문산읍 동부로 687,,35.169298,128.160147,부동마을 노인회관,문산안전센터,N,Y,2009,1,3,100,진주소방서,055-760-9296,2019-04-30
"문산7호",01,경상남도,진주시,48170,경상남도 진주시 문산읍 동부로 633,,35.1689513,128.1690321,청하반점,문산안전센터,Y,Y,2009,1,3,100,진주소방서,055-760-9296,2019-04-30
2-036,01,경상남도,진주시,48170,경상남도 진주시 진양호로 145,,35.1692947,128.0551741,비앤비건물 앞,평거안전센터,Y,Y,2003,1,3,100,진주소방서,055-760-9296,2019-04-30
"문산24호",01,경상남도,진주시,48170,경상남도 진주시 문산읍 동부로 588,,35.169141,128.170008,"구, 문산중학교",문산안전센터,Y,Y,2006,1,3,100,진주소방서,055-760-9296,2019-04-30
"문산혁신115호",01,경상남도,진주시,48170,경상남도 진주시 범골로 37번길 8-23,,35.169119,128.130023,ANH스트럭쳐,문산안전센터,N,Y,2016,1,3,100,진주소방서,055-760-9296,2019-04-30
"문산8호",02,경상남도,진주시,48170,경상남도 진주시 문산읍 동부로 640,,35.1688089,128.1696664,천궁다방,문산안전센터,N,Y,1990,1,3,100,진주소방서,055-760-9296,2019-04-30
5-027,02,경상남도,진주시,48170,경상남도 진주시 남강로 1131,,35.1686667,128.116022,작은자매형제관상선교회 앞,상대안전센터,N,Y,1992,1,3,100,진주소방서,055-760-9296,2019-04-30
2-090,02,경상남도,진주시,48170,경상남도 진주시 진양호로 97번길 20,,35.168996,128.0506218,국민주택 앞,평거안전센터,N,Y,1994,1,3,100,진주소방서,055-760-9296,2019-04-30
2-134,01,경상남도,진주시,48170,경상남도 진주시 남강로 309번길 10-9,,35.168954,128.063135,뚱보화로불고기 옆,평거안전센터,N,Y,2013,1,3,100,진주소방서,055-760-9296,2019-04-30
"문산22호",01,경상남도,진주시,48170,경상남도 진주시 문산읍 월아산로 1094,,35.16865904,128.1629132,한양아파트,문산안전센터,N,Y,2010,1,3,100,진주소방서,055-760-9296,2019-04-30
"문산혁신6호",01,경상남도,진주시,48170,경상남도 진주시 에나로 228번길 16-30,,35.16878092,128.143294,현대블루핸즈,문산안전센터,Y,Y,2016,1,3,100,진주소방서,055-760-9296,2019-04-30
"문산저2호",04,경상남도,진주시,48170,경상남도 진주시 문산읍 월아산로 1094,,35.16865904,128.1629132,동국한양빌라,문산안전센터,N,Y,1992,1,3,100,진주소방서,055-760-9296,2019-04-30
